locId,country,region,city,postalCode,latitude,longitude,metroCode,areaCode
605,US,NY,Valhalla,10595,41.0877,-73.7768,501,914
606,US,PA,Pittsburgh,15222,40.4495,-79.988,508,412
607,US,MO,Bridgeton,63044,38.7667,-90.4201,609,314
608,US,CA,San Francisco,94124,37.7353,-122.3732,807,415
609,US,NY,New York,10017,40.7528,-73.9725,501,212
609,US,NY,New York,10017,40.7528,-73.9725,501,212
609,US,NY,New York,10017,40.7528,-73.9725,501,212
611,US,NJ,Piscataway,8854,40.5516,-74.4637,501,732
612,US,NY,Keuka Park,14478,42.5669,-77.1325,555,315
613,US,VT,Brattleboro,5302,42.8509,-72.5579,506,802
614,US,MA,Hanscom Afb,1731,42.4585,-71.2752,506,781
615,US,TN,Nashville,37203,36.1473,-86.777,659,615
616,US,CT,Bethel,6801,41.3807,-73.3915,501,203
617,US,NY,Jamaica,11432,40.7148,-73.7939,501,718
619,US,MI,Saginaw,48607,43.4312,-83.9337,513,989
620,US,CA,San Jose,95126,37.3239,-121.9144,807,408
621,US,MA,Haverhill,1835,42.753,-71.0861,506,978
623,US,IL,Chicago,60611,41.9288,-87.6315,602,312
624,US,VA,Richmond,23230,37.5858,-77.4888,556,804
625,US,NJ,Somerset,8873,40.4981,-74.5245,501,732
626,US,OH,Wilmington,45177,39.4611,-83.8172,515,937
628,US,TX,Mckinney,75071,33.2542,-96.6863,623,972
629,US,TX,Round Rock,78664,30.5174,-97.6304,635,512
631,US,MI,Dearborn,48126,42.3295,-83.1908,505,313
635,US,NY,Rego Park,11374,40.7265,-73.8526,501,718
636,US,NJ,Fort Lee,7024,40.8483,-73.9725,501,201
637,US,NY,Woodside,11377,40.7482,-73.9068,501,718
638,US,PA,Lehigh Valley,18002,40.6934,-75.4712,504,610
639,US,MD,Glen Burnie,21061,39.1626,-76.6247,512,410
640,US,MA,Boston,2116,42.3496,-71.0746,506,617
641,US,VA,Hampton,23666,37.0627,-76.4052,544,757
642,US,CA,Carlsbad,92009,33.0958,-117.2721,825,760
643,US,PA,Philadelphia,19102,39.9524,-75.1653,504,215
645,US,CT,Greenwich,6831,41.0821,-73.6636,501,203
646,US,MD,Baltimore,,39.2904,-76.6122,512,410
647,US,TX,The Colony,75056,33.0735,-96.9032,623,972
648,US,NJ,Fairfield,7004,40.8767,-74.2974,501,973
649,US,NC,Rocky Mount,27801,35.9216,-77.7315,560,252
651,US,VA,Reston,20190,38.9599,-77.3428,511,703
652,US,OH,Westerville,43081,40.1071,-82.8981,535,614
653,US,TX,San Marcos,78666,29.8729,-98.014,635,512
654,US,TX,Austin,78745,30.2058,-97.8002,635,512
656,US,IN,Indianapolis,46214,39.793,-86.2853,527,317
658,US,AZ,Chandler,85225,33.3233,-111.8244,753,480
659,US,NJ,Somerville,8876,40.5918,-74.705,501,908
661,US,PA,Blue Bell,19422,40.1576,-75.2757,504,215
662,US,IL,Granville,61326,41.2563,-89.222,675,815
663,US,CA,Beverly Hills,90212,34.0607,-118.4032,803,310
664,US,MD,Silver Spring,20904,39.0649,-76.9798,511,301
665,US,IL,Huntley,60142,42.1759,-88.4608,602,847
666,US,VT,Williston,5495,44.4235,-73.0854,523,802
667,US,TX,Dallas,75207,32.7825,-96.8207,623,214
668,US,FL,Boca Raton,33487,26.4095,-80.0942,548,561
669,US,MA,Amesbury,1913,42.8541,-70.9521,506,978
670,US,NJ,New Brunswick,8901,40.4835,-74.4432,501,732
671,US,CA,Los Angeles,90015,34.0396,-118.2661,803,213
672,US,NJ,Edison,8837,40.4981,-74.3194,501,732
673,US,NJ,Cape May,8204,38.9834,-74.9025,504,609
674,US,NJ,Berkeley Heights,7922,40.6766,-74.4202,501,908
675,US,NY,Albany,12203,42.6849,-73.8318,532,518
677,US,NJ,Saddle Brook,7663,40.9028,-74.096,501,201
678,US,NJ,South Plainfield,7080,40.5722,-74.4134,501,908
679,US,NJ,Iselin,8830,40.5692,-74.3157,501,732
680,US,NY,Hempstead,11550,40.6963,-73.6207,501,516
682,US,NJ,Moorestown,8057,39.9757,-74.9439,504,856
683,US,NJ,Riverside,8075,40.0178,-74.9449,504,856
684,US,MO,Joplin,64804,37.017,-94.4933,603,417
685,US,NC,Durham,27713,35.8896,-78.9244,560,919
686,US,NJ,Thorofare,8086,39.8502,-75.1895,504,856
687,US,CA,San Diego,92121,32.9014,-117.2079,825,858
688,US,NC,Matthews,28106,35.1168,-80.7237,517,704
689,US,CT,Bristol,6010,41.6816,-72.9405,533,860
690,US,TN,Memphis,38103,35.185,-90.0936,640,901
693,US,NY,Brooklyn,11205,40.6981,-73.9571,501,718
694,US,TX,Sherman,75092,33.6383,-96.7245,657,903
695,US,NY,Westbury,11590,40.757,-73.5814,501,516
697,US,PA,King Of Prussia,19406,40.0902,-75.3937,504,610
699,US,NY,Uniondale,11556,40.7548,-73.6018,501,516
700,US,MA,Cambridge,2141,42.37,-71.0812,506,617
701,US,FL,Miami,33169,25.9388,-80.2144,528,305
702,US,CA,Irvine,92606,33.7011,-117.797,803,949
703,US,OH,Columbus,43207,39.8928,-82.9588,535,614
704,US,NJ,Jersey City,7310,40.7291,-74.0386,501,201
706,US,OH,Findlay,45840,41.0221,-83.6789,547,419
707,US,MA,Danvers,1923,42.5767,-70.9549,506,978
708,US,CT,Branford,6405,41.2864,-72.7956,533,203
709,US,RI,Providence,2903,41.8195,-71.4107,521,401
710,US,MA,Waltham,2451,42.403,-71.259,506,781
711,US,MA,Middleton,1949,42.6025,-71.0119,506,978
712,US,MA,Chelsea,2150,42.3997,-71.0316,506,617
715,US,MA,Newburyport,1950,42.8135,-70.886,506,978
716,US,MA,Bedford,1730,42.4878,-71.2764,506,781
717,US,OR,North Bend,97459,43.4836,-124.1633,801,541
718,US,MA,Medway,2053,42.1556,-71.4268,506,508
719,US,NY,Bronx,10462,40.8424,-73.8556,501,718
720,US,MA,Woburn,1801,42.4897,-71.1595,506,781
721,US,NJ,Middletown,7748,40.3965,-74.1075,501,732
722,US,MA,Dedham,2026,42.2451,-71.184,506,781
723,US,MA,North Andover,1845,42.6723,-71.0837,506,978
724,US,NH,Laconia,3246,43.5645,-71.482,506,603
725,US,MA,Merrimac,1860,42.8374,-71.0121,506,978
726,US,NY,Syracuse,13214,43.0347,-76.0729,555,315
728,US,TX,Addison,75001,32.9603,-96.83,623,972
729,US,MA,Norwell,2061,42.1508,-70.8228,506,781
731,US,ME,Lewiston,4240,44.0845,-70.1696,500,207
735,US,MA,Burlington,1803,42.5051,-71.2047,506,781
736,US,MA,Belmont,2478,42.3959,-71.1787,506,617
737,US,OR,Beaverton,97006,45.5222,-122.8593,820,503
738,US,MA,Watertown,2472,42.3722,-71.1787,506,617
741,US,TX,Bowie,76230,33.5368,-97.9683,623,940
742,US,NJ,Morristown,7960,40.7684,-74.4942,501,973
743,US,DC,Washington,20024,38.8749,-77.0325,511,202
745,US,NY,Staten Island,10312,40.5453,-74.1786,501,718
746,US,PA,North Wales,19454,40.2216,-75.238,504,215
748,US,MI,Waterford,48328,42.6465,-83.3554,505,248
749,US,MI,Okemos,48864,42.7042,-84.4098,551,517
751,US,OH,Celina,45822,40.5345,-84.6289,542,419
753,US,MN,Shakopee,55379,44.7467,-93.5004,613,952
754,US,FL,Clearwater,33759,27.9839,-82.7181,539,727
755,US,NE,Omaha,68137,41.2079,-96.1183,652,402
758,US,SC,Shaw A F B,29152,33.9753,-80.461,546,803
759,US,CA,Mountain View,94041,37.3885,-122.0741,807,650
760,US,AL,Fort Payne,35967,34.4018,-85.7095,691,256
761,US,NC,Sanford,27330,35.5153,-79.2007,560,919
762,US,TX,Irving,75039,32.8795,-96.9398,623,972
764,US,MI,Traverse City,49684,44.7805,-85.7289,540,231
765,US,NC,Hickory,28602,35.6767,-81.385,517,828
767,US,GA,Atlanta,30345,33.8477,-84.2814,524,404
769,US,MI,Albion,49224,42.2935,-84.7509,563,517
770,US,IN,South Bend,46634,41.6834,-86.25,588,574
772,US,WI,Sturtevant,53177,42.6981,-87.9389,617,262
773,US,IN,Logansport,46947,40.7924,-86.3798,527,574
774,US,CA,Perris,92570,33.7818,-117.3317,803,951
775,US,WA,Issaquah,98027,47.5013,-122.0065,819,425
776,US,KY,Morehead,40351,38.2075,-83.3989,541,606
777,US,MI,Saint Clair Shores,48080,42.4655,-82.9013,505,586
779,US,MI,Burton,48529,42.9757,-83.6628,513,810
781,US,MN,Crookston,56716,47.7528,-96.5563,724,218
782,US,GA,Warner Robins,31088,32.5814,-83.6286,503,478
783,US,VA,Vienna,22182,38.9348,-77.2672,511,703
785,US,TX,Friendswood,77546,29.5142,-95.1903,618,281
786,US,MN,Minneapolis,55441,45.0059,-93.4305,613,763
787,US,NY,Norwich,13815,42.5452,-75.5588,502,607
788,US,IA,Urbandale,50322,41.6327,-93.7374,679,515
789,US,WI,Omro,54963,44.0537,-88.7916,658,920
791,US,CA,Rosamond,93560,34.9286,-118.4052,803,661
792,US,IA,Perry,50220,41.8637,-94.1113,679,515
793,US,MN,Saint Paul,55113,45.0101,-93.1519,613,651
794,US,TX,Amarillo,79102,35.2006,-101.821,634,806
795,US,IN,Evansville,47715,37.9708,-87.4897,649,812
796,US,MI,Southfield,48034,42.4753,-83.2845,505,248
797,US,IL,Flora,62839,38.6712,-88.4973,581,618
798,US,MI,Auburn Hills,48326,42.6644,-83.2303,505,248
799,US,IL,Lisle,60532,41.787,-88.0833,602,630
800,US,IL,Naperville,60563,41.8032,-88.1341,602,630
801,US,IL,Batavia,60510,41.8392,-88.3612,602,630
802,US,IL,Normal,61761,40.5282,-88.9801,675,309
803,US,IL,Bloomington,61702,40.4842,-88.9937,675,309
804,US,IL,Morris,60450,41.3926,-88.4455,602,815
805,US,NC,Cary,27513,35.8059,-78.7997,560,919
806,US,IL,Streator,61364,41.1266,-88.8453,602,815
807,US,IL,Franklin Park,60131,41.9349,-87.8851,602,847
808,US,IL,Downers Grove,60515,41.8089,-88.0112,602,630
809,US,MA,Leominster,1453,42.5244,-71.7657,506,978
810,US,IL,Westmont,60559,41.7949,-87.9709,602,630
811,US,CA,Folsom,95630,38.6729,-121.1488,862,916
812,US,TX,Freer,78357,27.9112,-98.5865,600,361
813,US,IL,Oak Brook,60523,41.8372,-87.9613,602,630
814,US,IL,Heyworth,61745,40.3278,-88.9686,675,309
815,US,IL,Elmhurst,60126,41.8917,-87.9359,602,630
816,US,ME,Bangor,4401,44.8635,-68.8402,537,207
817,US,IL,West Chicago,60185,41.8969,-88.2104,602,630
818,US,IL,Joliet,60431,41.5085,-88.2278,602,815
819,US,IL,Lombard,60148,41.8732,-88.0002,602,630
820,US,IL,Melrose Park,60164,41.9163,-87.8924,602,708
821,US,IL,Bolingbrook,60440,41.6989,-88.0789,602,630
823,US,CA,Hacienda Heights,91745,34.0024,-117.9757,803,626
824,US,GA,Savannah,31408,32.1213,-81.1822,507,912
826,US,IL,Willowbrook,60527,41.7439,-87.9343,602,630
827,US,CT,Enfield,6082,41.9845,-72.5571,533,860
829,US,CA,Chino,91710,34.0122,-117.6889,803,909
831,US,RI,Warwick,2886,41.705,-71.4604,521,401
832,US,PA,Murrysville,15668,40.4554,-79.66,508,724
836,US,PA,Coraopolis,15108,40.4998,-80.1842,508,412
837,US,MO,O Fallon,63366,38.8251,-90.7289,609,636
840,US,MD,Salisbury,21801,38.3761,-75.6086,576,410
841,US,WV,Bridgeport,26330,39.2844,-80.2307,598,304
842,US,PA,Ellwood City,16117,40.8768,-80.2611,508,724
843,US,PA,New Kensington,15068,40.5728,-79.7248,508,724
844,US,PA,West Mifflin,15122,40.3609,-79.9015,508,412
845,US,MO,Licking,65542,37.5073,-91.8828,619,573
846,US,PA,Cranberry Twp,16066,40.7097,-80.1049,508,724
847,US,WV,Wheeling,26003,40.0582,-80.6362,554,304
848,US,NC,Morrisville,27560,35.8601,-78.8326,560,919
849,US,NC,Greenville,27834,35.6876,-77.1661,545,252
851,US,WI,Milwaukee,53202,43.0434,-87.8945,617,414
852,US,TX,Fort Worth,76104,32.7257,-97.3214,623,817
853,US,NC,Raleigh,27604,35.8181,-78.5636,560,919
854,US,NC,New Bern,28560,35.162,-76.9585,545,252
856,US,GA,Brunswick,31520,31.1823,-81.4926,561,912
859,US,NJ,Fair Lawn,7410,40.9364,-74.1184,501,201
861,US,NC,Chapel Hill,27514,35.9666,-79.041,560,919
864,US,TX,Stratford,79084,36.2779,-102.0156,634,806
865,US,ID,Boise,83705,43.561,-116.2135,757,208
866,US,NC,Oriental,28571,35.0632,-76.7017,545,252
867,US,VA,Alexandria,22312,38.8177,-77.1527,511,703
868,US,VA,Sterling,20166,38.9881,-77.4755,511,703
869,US,VA,Manassas,20109,38.7701,-77.6321,511,703
870,US,VA,Culpeper,22701,38.4348,-77.9866,511,540
872,US,FL,Jacksonville,32225,30.3533,-81.499,561,904
873,US,KY,Frankfort,40601,38.2357,-84.9592,541,502
875,US,VA,Herndon,20170,38.9841,-77.3827,511,703
878,US,VA,Warrenton,20186,38.7179,-77.8521,511,540
880,US,VA,Arlington,22204,38.86,-77.0987,511,703
881,US,VA,Gordonsville,22942,38.0964,-78.1814,556,540
883,US,VA,Catlett,20119,38.6249,-77.6252,511,540
885,US,VA,Winchester,22602,39.1492,-78.278,511,540
886,US,CA,Piru,93040,34.4153,-118.794,803,805
888,US,VA,Leesburg,20175,39.0487,-77.6082,511,703
889,US,VA,Chesapeake,23320,36.7646,-76.199,544,757
890,US,VA,Mc Lean,22102,38.9499,-77.2223,511,703
891,US,VA,Quantico,22134,38.5359,-77.4219,511,703
892,US,NC,Fuquay Varina,27526,35.5446,-78.8309,560,919
893,US,MI,Holland,49423,42.7423,-86.0661,563,616
894,US,OH,Blacklick,43004,40.0122,-82.8095,535,614
895,US,AL,Birmingham,35243,33.4468,-86.7404,630,205
897,US,OH,Fostoria,44830,41.1628,-83.3976,547,419
898,US,CA,Palm Springs,92264,33.728,-116.5116,804,760
902,US,NC,Southern Pines,28387,35.1752,-79.3834,560,910
903,US,NC,Edenton,27932,36.1213,-76.6414,544,252
905,US,OH,Alliance,44601,40.9157,-81.133,510,330
906,US,KY,Elizabethtown,42701,37.7153,-85.8565,529,270
907,US,NC,Fayetteville,28303,35.0785,-78.9336,560,910
908,US,CT,Old Greenwich,6870,41.0229,-73.5649,501,203
910,US,VA,Colonial Heights,23834,37.2879,-77.4153,556,804
913,US,CA,Rancho Cucamonga,91730,34.0995,-117.5808,803,909
914,US,OH,Newark,43055,40.1241,-82.3828,535,740
915,US,IN,Wakarusa,46573,41.5402,-86.0524,588,574
916,US,GA,Duluth,30097,34.0408,-84.1665,524,770
917,US,MN,Granite Falls,56241,44.7966,-95.5843,613,320
918,US,PA,Ambridge,15003,40.5996,-80.2078,508,724
919,US,MI,Troy,48098,42.6056,-83.1499,505,248
922,PR,0,Carolina,985,18.3207,-65.9419,,
923,US,NJ,Vineland,8360,39.4968,-75.0157,504,856
924,US,NY,Suffern,10901,41.1523,-74.1217,501,845
927,US,AZ,Phoenix,85021,33.5586,-112.0955,753,602
929,US,MI,Detroit,48204,42.3679,-83.1386,505,313
930,US,OH,Toledo,43612,41.7073,-83.543,547,419
931,US,IN,Jasper,47546,38.4207,-86.9277,649,812
932,US,IN,Middlebury,46540,41.6766,-85.6959,588,574
934,US,KS,Overland Park,66210,38.9247,-94.7029,616,913
937,US,MO,Grain Valley,64029,38.9927,-94.2151,616,816
938,US,KS,Hiawatha,66434,39.8484,-95.5585,605,785
939,US,MO,Springfield,65802,37.219,-93.3176,619,417
940,US,MO,Pineville,64856,36.5732,-94.2747,603,417
941,US,IL,Winfield,60190,41.872,-88.1662,602,630
942,US,WA,Tacoma,98444,47.1511,-122.4492,819,253
943,US,OH,Dayton,45414,39.833,-84.2177,542,937
945,US,SD,Sioux Falls,57106,43.5042,-96.8391,725,605
946,US,OH,Hebron,43025,39.9737,-82.5091,535,740
947,US,IL,Wheaton,60187,41.852,-88.1211,602,630
951,US,NJ,Livingston,7039,40.7871,-74.3291,501,973
952,US,AR,Flippin,72634,36.2409,-92.5355,619,870
955,US,MO,Saint Louis,63144,38.6182,-90.3467,609,314
956,US,MO,Fenton,63099,38.6383,-90.4271,609,636
958,US,IL,Fairview Heights,62208,38.5974,-90.0071,609,618
960,US,TN,Cordova,38018,35.1364,-89.7726,640,901
963,US,NC,Winston Salem,27106,36.146,-80.3243,518,336
964,US,NV,Henderson,89074,36.0312,-115.0739,839,702
967,US,MO,Cape Girardeau,63703,37.2782,-89.5479,632,573
968,US,MO,Columbia,65202,39.0437,-92.2714,604,573
970,US,KY,Louisville,40272,38.0858,-85.8495,529,502
972,US,MO,Poplar Bluff,63901,36.7527,-90.4853,632,573
974,US,AL,Montgomery,36104,32.3934,-86.3222,698,334
975,US,IA,Dubuque,52001,42.5507,-90.6931,637,563
976,US,MO,Lake Saint Louis,63367,38.7859,-90.7861,609,636
977,US,OK,Oklahoma City,73120,35.5798,-97.5731,650,405
979,US,IL,Staunton,62088,39.0164,-89.7811,609,618
980,US,MI,Taylor,48180,42.2256,-83.2685,505,313
981,US,MO,Maryland Heights,63043,38.7283,-90.4509,609,314
982,US,CT,Norwalk,6855,41.1003,-73.3983,501,203
983,US,CT,Preston,6365,41.5174,-71.9904,533,860
985,US,MA,Andover,1810,42.6489,-71.1655,506,978
986,US,GA,Stone Mountain,30083,33.7844,-84.2135,524,404
987,US,KS,Lenexa,66219,38.9506,-94.7791,616,913
988,US,CA,El Centro,92243,32.7736,-115.6022,771,760
990,US,UT,Nephi,84648,39.6873,-111.8309,770,435
991,US,UT,Clearfield,84016,41.1108,-112.026,770,801
992,US,GA,Alpharetta,30004,34.133,-84.3005,524,770
995,US,UT,Salt Lake City,,40.7608,-111.8911,770,801
997,US,UT,Hill Afb,84056,41.1285,-111.9834,770,801
998,US,UT,North Salt Lake,84054,40.8421,-111.9056,770,801
1002,US,CO,Colorado Springs,80904,38.8609,-104.8734,752,719
1003,US,LA,New Orleans,70121,29.9589,-90.1568,622,504
1004,US,CO,Eads,81036,38.4407,-102.786,751,719
1005,US,MS,Jackson,39202,32.3134,-90.172,718,601
1007,US,MO,Fort Leonard Wood,65473,37.7672,-92.0991,619,573
1012,US,AZ,Scottsdale,85251,33.4912,-111.9237,753,480
1013,US,CO,Woodland Park,80863,38.9967,-105.1184,752,719
1016,US,CA,Highland,92346,34.1359,-117.1553,803,909
1017,US,CO,Englewood,80112,39.569,-104.8582,751,303
1019,US,CO,Palmer Lake,80133,39.1141,-104.8984,752,719
1025,US,NE,Winnebago,68071,42.2344,-96.4887,624,402
1026,US,NE,Norfolk,68701,42.018,-97.4543,624,402
1027,US,NE,Pierce,68767,42.2063,-97.5723,624,402
1028,US,NM,Santa Fe,87501,35.7847,-105.8749,790,505
1029,US,NM,Albuquerque,87121,35.0441,-106.8904,790,505
1030,US,NJ,East Brunswick,8816,40.4293,-74.4203,501,732
1032,US,TX,El Paso,79925,31.7958,-106.3762,765,915
1033,US,NM,Grants,87020,35.0207,-107.9583,790,505
1034,US,NM,Espanola,87532,36.0008,-106.1316,790,505
1035,US,CA,Inglewood,90301,33.9582,-118.3614,803,310
1036,US,NM,Dulce,87528,36.7966,-106.8854,790,575
1040,US,CA,Red Bluff,96080,40.1785,-122.2358,868,530
1041,US,NM,Aztec,87410,36.8716,-107.8885,790,505
1042,US,FL,West Palm Beach,33401,26.72,-80.0702,548,561
1043,US,NM,Deming,88030,32.2246,-107.7635,790,575
1045,US,NM,Lovington,88260,32.8186,-103.4384,790,575
1047,US,NM,Las Cruces,88011,32.3047,-106.6417,765,575
1048,US,NC,Mocksville,27028,35.894,-80.5614,518,336
1050,US,NM,Roswell,88201,33.5682,-104.4225,790,575
1052,US,MO,Kansas City,64106,39.1068,-94.566,616,816
1053,US,IL,Elk Grove Village,60007,42.0152,-87.9901,602,847
1054,US,CA,Merced,95340,37.29,-120.4888,866,209
1056,US,FL,Orlando,32817,28.5883,-81.2439,534,407
1058,US,NM,Maljamar,88264,32.8854,-103.7113,633,575
1059,US,OH,Chillicothe,45601,39.3335,-83.0168,535,740
1060,US,NM,Mountainair,87036,34.4851,-106.2263,790,505
1061,US,NM,Hobbs,88240,32.7103,-103.2764,633,575
1063,US,MD,Bethesda,20816,38.9543,-77.1159,511,301
1064,US,CO,Denver,80202,39.7525,-104.9995,751,303
1065,US,OR,Portland,97266,45.4691,-122.5535,820,503
1068,US,LA,Baton Rouge,70802,30.4386,-91.1703,716,225
1069,US,MI,Livonia,48152,42.425,-83.3744,505,248
1070,US,IL,Skokie,60077,42.0347,-87.7614,602,847
1071,US,CO,Commerce City,80022,39.871,-104.7843,751,303
1073,US,CO,Fort Collins,80521,40.5939,-105.1256,751,970
1074,US,GA,Moody A F B,31699,30.9785,-83.2165,530,229
1075,US,KS,Pittsburg,66762,37.3506,-94.6819,603,620
1076,US,MI,Grand Rapids,49504,42.9777,-85.711,563,616
1077,US,NE,Lincoln,68508,40.8176,-96.7114,722,402
1078,US,NE,Fremont,68025,41.4803,-96.4728,652,402
1081,US,NE,Kearney,68845,40.7499,-99.198,722,308
1082,US,SD,North Sioux City,57049,42.5241,-96.4998,624,605
1084,US,NJ,Mount Laurel,8054,39.9572,-74.9162,504,856
1085,US,AR,Bentonville,72712,36.3457,-94.2514,670,479
1086,US,GA,Gainesville,30501,34.3138,-83.8095,524,770
1089,US,MI,Clare,48617,43.8489,-84.7349,540,989
1091,US,FL,Cape Coral,33991,26.6356,-82.0164,571,239
1092,US,MI,Beaver Island,49782,45.6659,-85.5584,540,231
1093,US,MD,California,20619,38.2907,-76.5221,511,301
1095,US,NE,Oneill,68763,42.4726,-98.5671,722,402
1098,US,VA,Elkwood,22718,38.4821,-77.8175,511,540
1099,US,SD,Deadwood,57732,44.2782,-103.6297,764,605
1100,US,OK,Tulsa,74131,36.0492,-96.0712,671,918
1101,US,AR,Fort Smith,72901,35.3659,-94.4126,670,479
1103,US,TX,Weatherford,76086,32.7546,-97.7876,623,817
1104,US,CA,Pasadena,91106,34.1379,-118.1296,803,626
1110,US,CA,Monrovia,91016,34.1539,-117.9919,803,626
1111,US,AZ,Maricopa,85239,33.0168,-112.2028,753,520
1112,US,GA,Hawkinsville,31036,32.268,-83.5266,503,478
1114,US,CA,Garden Grove,92841,33.7877,-117.9738,803,714
1115,US,MI,Webberville,48892,42.6542,-84.1766,551,517
1117,US,TX,Huntsville,77340,30.6518,-95.5543,618,936
1119,US,TX,San Antonio,78205,29.4244,-98.4842,641,210
1121,US,CO,Boulder,80314,40.0878,-105.3735,751,303
1123,US,CO,Vail,81657,39.6412,-106.3228,751,970
1125,US,WY,Casper,82609,42.8035,-106.2245,767,307
1126,US,MA,West Springfield,1089,42.1235,-72.6399,543,413
1127,US,CA,Glendale,91205,34.1352,-118.2416,803,818
1128,US,MA,Canton,2021,42.1847,-71.122,506,781
1129,US,AZ,Yuma,85365,32.7244,-114.5157,771,928
1131,US,CA,South San Francisco,94080,37.6534,-122.4231,807,650
1133,US,CA,Burbank,91521,33.7866,-118.2987,803,818
1134,US,OK,Norman,73071,35.233,-97.4122,650,405
1136,US,SD,Rapid City,57702,44.035,-103.3782,764,605
1138,PR,0,San Juan,907,18.4504,-66.0849,,
1139,US,OH,Miamisburg,45342,39.6182,-84.2488,542,937
1142,US,CO,Loveland,80538,40.4999,-105.2647,751,970
1143,US,CO,Westminster,80030,39.8301,-105.0345,751,303
1144,US,NY,Rochester,14625,43.1493,-77.5081,538,585
1145,US,CA,Sun Valley,91352,34.2322,-118.3448,803,818
1147,US,WY,Cheyenne,82001,41.1034,-104.9059,759,307
1148,US,AR,Mc Gehee,71654,33.6284,-91.3569,693,870
1149,US,TX,Carrollton,75006,32.9478,-96.8915,623,972
1150,US,MA,Westwood,2090,42.214,-71.2245,506,781
1151,US,FL,Lakeland,33801,28.0407,-81.9043,539,863
1152,US,CA,El Segundo,90245,33.9164,-118.4041,803,310
1153,US,TN,Greeneville,37743,36.0828,-82.8508,531,423
1156,US,MO,Grandview,64030,38.8858,-94.533,616,816
1159,US,MO,Jefferson City,65109,38.5516,-92.2745,604,573
1160,US,LA,Lake Charles,70605,30.1346,-93.273,643,337
1161,US,TX,Lone Star,75668,32.9001,-94.6753,612,903
1162,US,IL,Scott Air Force Base,62225,38.5421,-89.8448,609,618
1163,US,IL,Granite City,62040,38.7328,-90.1072,609,618
1166,US,MO,Van Buren,63965,36.9592,-90.9966,632,573
1167,US,TX,Eden,76837,31.2379,-99.8895,661,325
1169,US,IA,West Des Moines,50265,41.5664,-93.7405,679,515
1170,US,KS,Dodge City,67801,37.802,-99.9982,678,620
1172,US,IA,Dakota City,50529,42.7233,-94.1993,679,515
1173,US,TX,Buna,77612,30.3991,-93.9088,692,409
1175,US,IA,Des Moines,50309,41.5839,-93.6289,679,515
1176,US,AZ,Tempe,85282,33.4001,-111.929,753,480
1177,US,IA,Mason City,50401,43.1465,-93.2075,611,641
1178,US,IA,Oelwein,50662,42.684,-91.9346,637,319
1181,US,IN,New Albany,47150,38.2813,-85.8401,529,812
1182,US,MD,Lanham,20706,38.969,-76.8537,511,301
1184,US,NY,Mount Kisco,10549,41.1995,-73.7164,501,914
1185,US,LA,Shreveport,71107,32.6188,-93.8852,612,318
1186,US,AR,Murfreesboro,71958,34.1139,-93.7089,612,870
1187,US,AR,Mount Ida,71957,34.572,-93.412,693,870
1189,US,LA,Springhill,71075,32.9786,-93.5171,612,318
1190,US,TX,Post,79356,33.2485,-101.3345,651,806
1193,US,ND,Bismarck,58501,46.8159,-100.7061,687,701
1194,US,MO,West Plains,65775,36.7248,-91.8945,619,417
1196,US,AR,Little Rock,72203,34.7465,-92.2896,693,501
1197,US,LA,Bossier City,71111,32.5695,-93.6923,612,318
1198,US,AR,Mabelvale,72103,34.6551,-92.3865,693,501
1200,US,TX,Houston,77040,29.8688,-95.538,618,713
1201,US,TX,Beaumont,77708,30.1406,-94.1571,692,409
1202,US,AR,White Hall,71612,34.274,-92.091,693,870
1203,US,AR,Hamburg,71646,33.2265,-91.7912,628,870
1206,US,AR,Russellville,72801,35.278,-93.1373,693,479
1207,US,AR,Pine Bluff,71601,34.1805,-91.9095,693,870
1208,US,AL,Helena,35080,33.2507,-86.9211,630,205
1210,US,MA,Sandwich,2563,41.7194,-70.4803,506,508
1211,US,AR,Hot Springs National Park,71913,34.4179,-93.0493,693,501
1212,US,AR,Maumelle,72113,34.8675,-92.4001,693,501
1213,US,LA,Pleasant Hill,71065,31.8199,-93.5143,612,318
1214,US,LA,Sibley,71073,32.5178,-93.292,612,318
1215,US,AR,North Little Rock,72117,34.7742,-92.1554,693,501
1217,US,TX,Lewisville,75067,33.0306,-96.9926,623,972
1222,US,TN,Bells,38006,35.6629,-89.1089,640,731
1224,US,MS,Horn Lake,38637,34.9592,-90.0286,640,901
1227,US,TX,Laredo,78041,27.5596,-99.4608,749,956
1228,US,AZ,Tucson,85705,32.2686,-111.0022,789,520
1231,US,KS,Mission,66201,39.0278,-94.6558,616,913
1232,US,AZ,Mesa,85204,33.3972,-111.7858,753,480
1233,US,AR,Paragould,72450,36.1041,-90.4662,734,870
1234,US,ID,Cottonwood,83522,45.9489,-116.5209,881,208
1236,US,AL,Mobile,36608,30.6586,-88.3535,686,251
1237,US,FL,Miami Beach,33141,25.8582,-80.1312,528,305
1239,US,CA,Culver City,90230,33.995,-118.3917,803,310
1240,US,MA,Newton,2458,42.3533,-71.1883,506,617
1241,US,MA,Westford,1886,42.5888,-71.4416,506,978
1244,US,MA,Newbury,1951,42.7782,-70.8704,506,978
1245,US,FL,Tampa,33609,27.943,-82.524,539,813
1246,US,MA,Lowell,1851,42.6241,-71.3389,506,978
1247,US,MA,Quincy,2169,42.2429,-71.0098,506,617
1250,US,LA,Metairie,70006,30.0133,-90.1921,622,504
1251,US,VA,Bluemont,20135,39.0832,-77.8939,511,540
1253,US,SC,Charleston,29406,32.9326,-79.9798,519,843
1256,US,PA,Bensalem,19020,40.103,-74.9415,504,215
1257,US,PA,Malvern,19355,40.0402,-75.5332,504,610
1259,US,PA,Horsham,19044,40.1883,-75.1502,504,215
1260,US,SC,Bennettsville,29512,34.6296,-79.7068,570,843
1261,US,CA,Corona,92879,33.8778,-117.5344,803,951
1263,US,KS,Olathe,66062,38.8518,-94.7786,616,913
1264,US,PA,Bala Cynwyd,19004,40.0143,-75.2267,504,610
1267,US,TX,Sugar Land,77478,29.6237,-95.6322,618,281
1269,US,MA,Needham Heights,2494,42.297,-71.2196,506,781
1271,US,TX,Plano,75074,33.0362,-96.6712,623,972
1273,US,PA,Lancaster,17603,40.0052,-76.3246,566,717
1274,US,PA,Snow Shoe,16874,41.0287,-77.9143,574,814
1275,US,CA,Newport Beach,92660,33.6275,-117.8734,803,949
1276,US,PA,Lewistown,17044,40.6007,-77.5777,566,717
1277,US,TX,Idalou,79329,33.7315,-101.6777,651,806
1278,US,TX,Midlothian,76065,32.468,-96.9873,623,972
1279,US,SC,North Charleston,29418,32.8688,-80.04,519,843
1280,US,CA,Bakersfield,93312,35.3832,-119.2272,800,661
1282,US,NJ,Maple Shade,8052,39.95,-74.9929,504,856
1284,US,DE,Dover,19904,39.1817,-75.5971,504,302
1285,US,CA,Malibu,90265,34.0697,-118.8177,803,310
1287,US,TN,Franklin,37067,35.9086,-86.7811,659,615
1288,US,MS,Port Gibson,39150,31.9312,-91.0005,718,601
1289,US,PA,Willow Grove,19090,40.1492,-75.1285,504,215
1290,US,CA,Sherman Oaks,91423,34.1463,-118.4293,803,818
1291,US,TX,Alice,78332,27.7039,-98.0844,600,361
1292,US,CA,Fresno,93711,36.84,-119.8285,866,559
1293,US,CA,Clovis,93612,36.8112,-119.7129,866,559
1294,US,CA,Sunnyvale,94086,37.3697,-122.0214,807,408
1295,US,TX,Edinburg,78541,26.4628,-98.2568,636,956
1296,US,CA,Hollister,95023,36.8952,-121.2434,828,831
1297,US,SC,Fair Play,29643,34.5171,-82.9922,567,864
1300,US,CA,Campbell,95008,37.2803,-121.9567,807,408
1301,US,CA,Santa Clara,95054,37.3961,-121.9617,807,408
1302,US,CA,Pescadero,94060,37.2061,-122.3002,807,650
1303,US,CA,Monterey,93940,36.3699,-121.8406,828,831
1304,US,IL,Carthage,62321,40.3889,-91.0986,717,217
1307,US,CA,Santa Monica,90401,34.016,-118.4925,803,310
1308,US,NY,Lake Placid,12946,44.2351,-73.9913,523,518
1310,US,AR,Searcy,72143,35.2327,-91.7054,693,501
1311,US,MA,Gloucester,1930,42.6179,-70.7154,506,978
1315,US,CA,Milpitas,95035,37.4404,-121.8705,807,408
1317,US,CA,Morgan Hill,95037,37.1747,-121.6518,807,408
1319,US,CA,Modesto,95351,37.6369,-121.0171,862,209
1321,US,CA,Cupertino,95014,37.3042,-122.0946,807,408
1322,US,CA,Coarsegold,93614,37.174,-119.7098,866,559
1325,US,MI,Warren,48089,42.4736,-82.9968,505,586
1329,US,MI,Romulus,48174,42.203,-83.3166,505,734
1330,US,MI,Allen Park,48101,42.2654,-83.208,505,313
1331,US,HI,Lihue,96766,21.977,-159.3911,744,808
1334,US,NY,Gloversville,12078,43.1313,-74.3571,532,518
1335,US,OH,Fairborn,45324,39.827,-84.0187,542,937
1336,US,GA,Byron,31008,32.6612,-83.7854,503,478
1338,US,OH,Piqua,45356,40.1676,-84.2178,542,937
1339,US,OH,Lima,45807,40.7988,-84.1319,558,419
1340,US,OH,Vandalia,45377,39.889,-84.2296,542,937
1341,US,SC,Duncan,29334,34.9104,-82.123,567,864
1344,US,CA,Valencia,91355,34.418,-118.5662,803,661
1345,US,MI,Wixom,48393,42.52,-83.5517,505,248
1346,US,MI,Huntington Woods,48070,42.4816,-83.168,505,248
1347,US,MI,Farmington,48334,42.5065,-83.3491,505,248
1348,US,MI,Sterling Heights,48312,42.5587,-83.0092,505,586
1351,US,TX,Pharr,78577,26.1546,-98.2045,636,956
1353,US,MI,Ray,48096,42.7613,-82.9196,505,586
1356,US,MI,Flint,48502,43.0138,-83.6883,513,810
1358,US,MI,Clinton Township,48038,42.5991,-82.9312,505,586
1359,US,MI,,,42.4645,-83.3763,,
1363,US,MI,Davisburg,48350,42.7429,-83.5182,505,248
1366,US,IA,Percival,51648,40.732,-95.7965,652,712
1368,US,IA,Pella,50219,41.413,-92.923,679,641
1370,US,CA,Oroville,95966,39.4594,-121.3972,868,530
1371,US,NY,Ballston Spa,12020,43.0056,-73.8628,532,518
1372,US,IA,Waterloo,50702,42.4569,-92.315,637,319
1375,US,IA,Forest City,50436,43.2611,-93.6848,611,641
1376,US,AL,Chatom,36518,31.4652,-88.2545,686,251
1378,US,IA,Johnston,50131,41.7031,-93.7204,679,515
1381,US,MA,North Billerica,1862,42.571,-71.2755,506,978
1382,US,MA,Braintree,2184,42.2032,-71.0096,506,781
1383,US,MA,Hampden,1036,42.0679,-72.4185,543,413
1384,US,MA,Medford,2155,42.4247,-71.1112,506,781
1385,US,NY,Latham,12110,42.7526,-73.7804,532,518
1387,US,CA,Livermore,94550,37.5038,-121.5253,807,925
1389,US,IA,Story City,50248,42.1943,-93.6295,679,515
1390,US,KY,Van Lear,41265,37.7585,-82.7132,564,606
1391,US,IL,Mount Prospect,60056,42.0624,-87.9309,602,847
1392,US,MO,Perryville,63775,37.7307,-89.906,632,573
1393,US,MO,Eureka,63025,38.5105,-90.6365,609,636
1395,US,IL,East Saint Louis,62201,38.6125,-90.1678,609,618
1398,US,LA,Houma,70360,29.6076,-90.8146,622,985
1401,US,NH,Manchester,3103,42.9403,-71.4435,506,603
1402,US,MD,Hyattsville,20781,38.9545,-76.9443,511,301
1403,US,IL,Murphysboro,62966,37.768,-89.3275,632,618
1405,US,TN,Dresden,38225,36.3365,-88.6714,632,731
1406,US,TX,Brownsville,78521,25.9509,-97.3254,636,956
1407,US,TX,Vidor,77662,30.1821,-94.0098,692,409
1408,US,MS,Batesville,38606,34.2988,-89.9478,640,662
1409,US,MS,Oxford,38655,34.3402,-89.4833,640,662
1412,US,MS,West Point,39773,33.6521,-88.6953,673,662
1417,US,TN,Oakland,38060,35.2199,-89.4996,640,901
1418,US,HI,Honolulu,96813,21.3209,-157.8389,744,808
1419,US,HI,Waipahu,96797,21.4116,-158.0183,744,808
1420,US,AZ,Tolleson,85353,33.4223,-112.2725,753,623
1421,US,HI,Aiea,96701,21.4094,-157.8982,744,808
1425,US,HI,Kahului,96732,20.8802,-156.4689,744,808
1427,US,HI,Kapolei,96707,21.3775,-158.0862,744,808
1428,US,HI,Hilo,96720,19.6976,-155.1413,744,808
1429,US,IL,Collinsville,62234,38.6918,-89.9911,609,618
1430,US,MO,Florissant,63033,38.7955,-90.2755,609,314
1431,US,NY,Yonkers,10701,40.9513,-73.8773,501,914
1434,US,CT,Derby,6418,41.3333,-73.1019,533,203
1435,US,MO,Scott City,63780,37.1784,-89.5383,632,573
1436,US,HI,Kihei,96753,20.6989,-156.443,744,808
1437,US,FL,Sarasota,34239,27.3101,-82.5214,539,941
1440,US,VA,King George,22485,38.2733,-77.1739,511,540
1441,US,VA,Orange,22960,38.2207,-78.0559,556,540
1443,US,FL,Fort Myers,33913,26.5299,-81.6907,571,239
1444,US,NY,West Harrison,10604,41.0568,-73.7304,501,914
1445,US,ND,Fargo,58103,46.8543,-96.8284,724,701
1446,US,NH,Portsmouth,3801,43.0677,-70.8008,506,603
1447,US,ND,Jamestown,58401,46.8992,-98.7458,724,701
1448,US,MN,Canby,56220,44.705,-96.2518,613,507
1452,US,MN,Sauk Centre,56378,45.7265,-94.9847,613,320
1453,US,ND,Minot,58703,48.336,-101.3256,687,701
1458,US,LA,Addis,70710,30.349,-91.2855,716,225
1460,US,PA,Collegeville,19426,40.1879,-75.4254,504,610
1461,US,PA,Coatesville,19320,39.9683,-75.8267,504,610
1462,US,PA,Reading,19610,40.3377,-75.9769,504,610
1463,US,PA,Exton,19341,40.0409,-75.6374,504,610
1464,US,PA,Telford,18969,40.3265,-75.3697,504,215
1465,US,PA,Phoenixville,19460,40.1304,-75.5149,504,610
1466,US,PA,Pottstown,19464,40.2605,-75.6155,504,610
1467,US,PA,Newtown Square,19073,39.9853,-75.4367,504,610
1468,US,PA,Chadds Ford,19317,39.8554,-75.6342,504,610
1469,US,PA,Bryn Mawr,19010,40.0266,-75.3333,504,610
1470,US,PA,Allentown,18195,40.5844,-75.6246,504,610
1471,US,PA,West Chester,19380,39.9893,-75.612,504,610
1472,US,PA,Lansdale,19446,40.2415,-75.2838,504,215
1473,US,PA,Emmaus,18049,40.5189,-75.5013,504,610
1476,US,PA,Montgomeryville,18936,40.2216,-75.2264,504,215
1478,US,PA,Wayne,19087,40.0548,-75.4083,504,610
1479,US,PA,Plymouth Meeting,19462,40.1158,-75.2842,504,610
1480,US,MS,Tylertown,39667,31.1468,-90.0908,718,601
1482,US,PA,Ardmore,19003,40.0024,-75.3008,504,610
1483,US,PA,Mohnton,19540,40.2391,-75.966,504,610
1484,US,PA,Bethlehem,18020,40.6686,-75.3295,504,610
1487,US,TX,Alvin,77511,29.3656,-95.2525,618,281
1488,US,PA,Media,19063,39.9193,-75.419,504,610
1489,US,NC,Concord,28027,35.4198,-80.6748,517,704
1490,US,PA,Valley Forge,19482,39.9845,-76.7075,504,610
1492,US,PA,Easton,18045,40.691,-75.2793,504,610
1494,US,PA,Feasterville Trevose,19053,40.1584,-74.9732,504,215
1495,US,PA,Coopersburg,18036,40.5021,-75.3765,504,610
1496,US,LA,Robeline,71469,31.7163,-93.3345,612,318
1498,US,PA,Conshohocken,19428,40.0798,-75.2855,504,610
1499,US,TX,Spring,77386,30.0983,-95.357,618,281
1500,US,DE,Bear,19701,39.6025,-75.6945,504,302
1501,US,PA,Oakdale,15071,40.4064,-80.1876,508,412
1507,US,TX,Grapevine,76051,32.9234,-97.081,623,817
1508,US,PA,Paoli,19301,40.0403,-75.4854,504,610
1509,US,MA,Hyde Park,2136,42.2557,-71.1245,506,617
1510,US,MA,Hanover,2339,42.1226,-70.8517,506,781
1512,US,PA,Norristown,19403,40.1545,-75.3809,504,610
1514,US,PA,Fogelsville,18051,40.5996,-75.6665,504,610
1516,US,PA,Wynnewood,19096,39.9984,-75.2712,504,610
1517,US,PA,Devon,19333,40.0396,-75.4225,504,610
1521,US,PA,Berwyn,19312,40.0308,-75.4499,504,610
1522,US,KY,Lexington,40511,38.1346,-84.4958,541,859
1525,US,TX,Rosenberg,77471,29.5272,-95.8764,618,281
1526,US,WA,Gig Harbor,98335,47.2945,-122.622,819,253
1527,US,WA,Woodinville,98072,47.7543,-122.1635,819,425
1528,US,WA,Seattle,98104,47.6026,-122.3284,819,206
1529,US,NV,Las Vegas,89103,36.11,-115.2118,839,702
1530,US,WA,Bellevue,98006,47.5527,-122.1479,819,425
1532,US,WA,Renton,98055,47.4637,-122.2135,819,425
1533,US,MT,Saint Ignatius,59865,47.3294,-114.0231,762,406
1537,US,CA,San Bernardino,92408,34.078,-117.2578,803,909
1538,US,CO,Mosca,81146,37.6352,-105.7138,773,719
1541,US,CO,Broomfield,80021,39.8938,-105.1144,751,303
1546,US,GA,Norcross,30092,33.9681,-84.2304,524,770
1548,US,KS,Ottawa,66067,38.6227,-95.2689,616,785
1550,US,WA,Everett,98206,47.979,-122.2021,819,425
1551,US,MS,Bay Saint Louis,39520,30.2694,-89.4548,622,228
1552,US,MA,Taunton,2780,41.9113,-71.13,521,508
1553,US,WA,Redmond,98052,47.6801,-122.1206,819,425
1554,US,WA,Auburn,98002,47.3101,-122.2042,819,253
1555,US,CA,Desert Hot Springs,92241,33.8353,-116.2984,804,760
1556,US,LA,Jennings,70546,30.2547,-92.6759,642,337
1557,US,IN,Greencastle,46135,39.6597,-86.8663,527,765
1560,US,WA,Yelm,98597,46.8719,-122.5737,819,360
1561,US,TX,San Angelo,76901,31.5468,-100.561,661,325
1563,US,IL,Bourbonnais,60914,41.1916,-87.8555,602,815
1564,US,WA,Lynnwood,98037,47.8561,-122.2829,819,425
1568,US,WA,Pacific,98047,47.2585,-122.246,819,253
1569,US,PA,Erie,16509,42.0577,-80.0434,516,814
1570,US,AK,Anchorage,99501,61.2231,-149.8528,743,907
1573,US,WA,Sunnyside,98944,46.4436,-119.9189,810,509
1575,US,OH,Cleveland,44128,41.4379,-81.5366,510,216
1578,US,TX,Hearne,77859,30.8645,-96.5391,625,979
1579,US,WA,Mount Vernon,98273,48.4298,-122.4276,819,360
1580,US,UT,Ogden,84404,41.2471,-112.1316,770,801
1582,US,CA,Anaheim,92806,33.8312,-117.8673,803,714
1583,US,WA,Lakebay,98349,47.2833,-122.7747,819,253
1586,US,WA,Bremerton,98312,47.571,-122.7568,819,360
1587,US,PA,New Bloomfield,17068,40.408,-77.176,566,717
1592,US,NJ,Summit,7901,40.7139,-74.3689,501,908
1593,US,WA,Bellingham,98225,48.7395,-122.4809,819,360
1594,US,MT,Billings,59102,45.7661,-108.5789,756,406
1595,US,FL,Hollywood,33027,25.9825,-80.3434,528,954
1596,US,TX,Richardson,75080,32.9722,-96.7376,623,972
1597,US,MA,Peabody,1960,42.5324,-70.9736,506,978
1598,US,TX,Christine,78012,28.8036,-98.4763,641,830
1599,US,WA,Port Angeles,98362,47.9961,-123.2519,819,360
1601,US,MO,Chesterfield,63017,38.65,-90.5334,609,314
1602,US,WA,Federal Way,98003,47.3078,-122.3177,819,253
1606,US,WA,Winthrop,98862,48.5078,-120.3362,881,509
1607,US,VA,Fredericksburg,22405,38.3205,-77.4113,511,540
1608,US,VA,Harrisonburg,22801,38.4031,-78.8914,569,540
1609,US,IL,Northbrook,60062,42.1197,-87.8445,602,847
1610,US,GA,Kennesaw,30144,34.0331,-84.6011,524,770
1612,US,KY,Pikeville,41501,37.4879,-82.4956,564,606
1614,US,VA,Ashburn,20147,39.018,-77.539,511,703
1616,US,ID,Caldwell,83605,43.6604,-116.6383,757,208
1617,US,TX,Port Arthur,77642,29.9422,-93.8784,692,409
1618,US,OK,Lawton,73505,34.5798,-98.488,627,580
1620,US,NE,North Platte,69101,41.1191,-100.7915,740,308
1622,US,IL,Trenton,62293,38.6182,-89.7065,609,618
1625,US,IL,Benton,62812,37.993,-88.9211,632,618
1627,US,IL,Virginia,62691,39.9672,-90.2041,717,217
1628,US,IL,Sullivan,61951,39.5879,-88.5813,648,217
1629,US,TX,Odessa,79763,31.8093,-102.4546,633,432
1630,US,MO,Potosi,63664,37.9299,-90.9077,609,573
1631,US,MO,Herculaneum,63048,38.2591,-90.3928,609,636
1632,US,MO,Earth City,63045,38.7677,-90.4678,609,314
1633,US,IL,Casey,62420,39.3014,-87.9999,581,217
1634,US,CA,Palm Desert,92211,33.7724,-116.3458,804,760
1635,US,HI,Pearl Harbor,96860,24.8598,-168.0218,744,808
1641,US,KY,Hopkinsville,42240,36.9074,-87.4597,659,270
1643,US,HI,Waikoloa,96738,19.9305,-155.7967,744,808
1645,US,KS,Atwood,67730,39.7993,-101.0944,678,785
1646,US,KS,De Soto,66018,38.9644,-94.9806,616,913
1650,US,TX,Tyler,75703,32.2313,-95.2958,709,903
1651,US,MO,Republic,65738,37.1291,-93.5151,619,417
1652,US,LA,Belle Chasse,70037,29.7813,-90.0444,622,504
1656,US,MO,Moberly,65270,39.4037,-92.4088,604,660
1660,US,KS,Chase,67524,38.3622,-98.3875,678,620
1664,US,IL,Mokena,60448,41.533,-87.8898,602,708
1667,US,MS,Lucedale,39452,30.8808,-88.5922,686,601
1673,US,SC,Rock Hill,29730,34.8889,-81.0237,517,803
1677,US,KS,Oswego,67356,37.1774,-95.1709,603,620
1679,US,CA,Montclair,91763,34.071,-117.701,803,909
1681,US,AZ,Rio Rico,85648,31.5017,-111.0688,789,520
1682,US,VA,Williamsburg,23188,37.354,-76.7467,544,757
1683,US,TX,Port Lavaca,77979,28.601,-96.699,618,361
1684,US,GA,Royston,30662,34.2562,-83.1676,567,706
1687,US,MD,Elkridge,21075,39.2058,-76.748,512,410
1690,US,LA,Covington,70433,30.4574,-90.143,622,985
1691,US,AZ,Goodyear,85338,33.3776,-112.3874,753,623
1692,US,AZ,Nogales,85621,31.4502,-110.8311,789,520
1693,US,NC,Cherokee,28719,35.5161,-83.2733,567,828
1694,US,CA,Los Gatos,95032,37.2304,-121.9505,807,408
1697,US,CA,Camarillo,93012,34.2041,-118.9807,803,805
1698,US,AZ,Winslow,86047,35.1013,-110.6473,753,928
1699,US,NJ,Teaneck,7666,40.89,-74.0106,501,201
1701,US,AZ,Peoria,85382,33.6574,-112.2463,753,623
1702,US,CA,Pleasanton,94588,37.6704,-121.9374,807,925
1704,US,NC,Charlotte,28273,35.1232,-80.9343,517,704
1705,US,NE,Shelton,68876,40.8209,-98.7443,722,308
1714,US,AZ,Arizona City,85223,32.7559,-111.671,753,520
1715,US,CA,Victorville,92392,34.4954,-117.3686,803,760
1716,US,IL,Savoy,61874,40.0583,-88.2573,648,217
1719,US,NJ,Swedesboro,8085,39.7437,-75.3462,504,856
1725,US,AL,Eufaula,36027,31.9184,-85.2086,522,334
1726,US,NY,Bellerose,11426,40.7386,-73.7224,501,718
1727,US,NY,Valley Stream,11581,40.653,-73.7145,501,516
1729,US,AL,Warrior,35180,33.8185,-86.84,630,205
1731,US,AL,Daleville,36322,31.2545,-85.7133,606,334
1732,US,AL,Trussville,35173,33.6464,-86.5696,630,205
1734,US,AL,Enterprise,36330,31.3076,-85.8806,606,334
1735,US,MD,Lexington Park,20653,38.2345,-76.4308,511,301
1736,US,AL,Arab,35016,34.3122,-86.5049,691,256
1738,US,AL,Moundville,35474,32.9394,-87.5851,630,205
1740,US,AL,Verbena,36091,32.7581,-86.5155,698,205
1742,US,NJ,Voorhees,8043,39.8413,-74.9375,504,856
1743,US,CA,Yucaipa,92399,34.0486,-117.0143,803,909
1744,US,AL,Tuscaloosa,35406,33.3323,-87.4741,630,205
1745,US,AL,Scottsboro,35768,34.8023,-86.1028,691,256
1747,US,NY,Port Washington,11050,40.8373,-73.6938,501,516
1750,US,MI,Lansing,48912,42.7422,-84.5255,551,517
1751,US,CA,Escondido,92046,33.1192,-117.0864,825,760
1754,US,CA,Simi Valley,93065,34.2521,-118.7843,803,805
1755,US,OR,Lake Oswego,97035,45.4114,-122.724,820,503
1756,US,CA,Spring Valley,91978,32.715,-116.9444,825,619
1760,US,NY,Marlboro,12542,41.6023,-74.0033,501,845
1762,US,CA,Chula Vista,91910,32.6361,-117.0532,825,619
1765,US,CA,Tulare,93274,36.1815,-119.3623,866,559
1767,US,CA,Rancho Santa Fe,,33.0203,-117.2028,825,858
1768,US,NJ,Island Heights,8732,39.9421,-74.1499,501,732
1772,US,CA,Encinitas,92024,33.0501,-117.2528,825,760
1773,US,FL,Saint Petersburg,33706,27.7207,-82.7376,539,727
1774,US,FL,North Miami Beach,33160,25.9332,-80.1625,528,305
1776,US,CA,El Cajon,92020,32.7952,-116.9671,825,619
1778,US,NM,Silver City,88061,32.679,-108.5064,790,575
1780,US,CA,La Jolla,92037,32.8667,-117.2481,825,858
1781,US,NJ,North Bergen,7047,40.7904,-74.0246,501,201
1783,US,CA,Vista,92083,33.182,-117.2468,825,760
1784,US,CA,Sanger,93657,36.7963,-119.4454,866,559
1785,US,CO,Aurora,80011,39.7397,-104.794,751,303
1787,US,CA,Coronado,92118,32.6505,-117.1492,825,619
1791,US,CA,Calexico,92231,32.6914,-115.5171,771,760
1792,US,CA,Poway,92064,32.9775,-117.0232,825,858
1797,US,NY,Buffalo,14221,42.9864,-78.7279,514,716
1798,US,OH,Millersburg,44654,40.5131,-81.8689,510,330
1800,US,CA,West Hills,91307,34.2034,-118.6922,803,818
1801,US,CA,Carpinteria,93013,34.4335,-119.5223,855,805
1802,US,CA,Santa Barbara,93110,34.4386,-119.7696,855,805
1803,US,CA,North Hills,91343,34.2387,-118.4772,803,818
1804,US,CA,Redlands,92373,34.0008,-117.1266,803,909
1805,US,CA,Woodland Hills,91367,34.1749,-118.6152,803,818
1806,US,CA,Rohnert Park,94928,38.3433,-122.7041,807,707
1808,US,CA,Northridge,91324,34.2417,-118.5504,803,818
1811,US,CA,Lompoc,93436,34.6045,-120.398,855,805
1812,US,CA,Nipomo,93444,35.0508,-120.4858,855,805
1814,US,FL,Islamorada,33036,24.8651,-80.713,528,305
1815,US,CA,Santa Ana,92705,33.7633,-117.7942,803,714
1816,US,CA,Palmdale,93550,34.52,-118.0835,803,661
1817,US,CA,Encino,91436,34.154,-118.4982,803,818
1820,US,OH,Maumee,43537,41.5755,-83.6847,547,419
1823,US,CA,Sylmar,91342,34.321,-118.383,803,818
1824,US,CA,Santa Maria,93458,34.9556,-120.5027,855,805
1825,US,CA,Santa Ynez,93460,34.6452,-120.0244,855,805
1826,US,PA,Saint Marys,15857,41.4425,-78.5341,574,814
1829,US,NY,Ellicottville,14731,42.2998,-78.6489,514,716
1831,US,WV,Snowshoe,26209,38.4134,-80.0068,573,304
1834,US,NY,Niagara Falls,14303,43.0836,-79.0301,514,716
1835,US,CA,Goleta,93117,34.5021,-120.1287,855,805
1836,US,NJ,Morris Plains,7950,40.8447,-74.4781,501,973
1837,US,CA,Thousand Oaks,91360,34.2133,-118.88,803,805
1838,US,MD,Montgomery Village,20886,39.1752,-77.177,511,301
1839,US,CO,Grand Junction,81506,39.1264,-108.5363,773,970
1840,US,IN,Fort Wayne,46808,41.1005,-85.182,509,260
1844,US,MA,Billerica,1821,42.5493,-71.2558,506,978
1845,US,TX,Katy,77494,29.7397,-95.8302,618,281
1846,US,SC,Fort Mill,29715,35.0121,-80.8821,517,803
1849,US,MA,Beverly,1915,42.5653,-70.8578,506,978
1851,US,IL,Belleville,62226,38.542,-89.9919,609,618
1852,US,PA,Bradford,16701,41.9088,-78.7063,514,814
1855,US,NY,Tonawanda,14150,42.9905,-78.842,514,716
1856,US,CT,Westport,6880,41.1449,-73.3428,501,203
1859,US,WI,Racine,53403,42.6929,-87.8043,617,262
1863,US,IN,Plainfield,46168,39.6858,-86.4106,527,317
1865,US,MA,Revere,2151,42.4163,-70.9969,506,781
1869,US,IL,Glen Carbon,62034,38.7549,-89.974,609,618
1870,US,MA,Chelmsford,1824,42.5879,-71.3498,506,978
1871,US,MD,Annapolis,21401,38.9879,-76.5454,512,410
1872,US,CO,Castle Rock,80104,39.3276,-104.8163,751,303
1874,US,MI,Madison Heights,48071,42.5053,-83.1052,505,248
1877,US,NJ,Clifton,7011,40.8769,-74.1433,501,973
1879,US,AZ,Sedona,86336,34.9477,-111.9396,753,928
1882,US,TN,Brentwood,37027,35.9985,-86.7806,659,615
1883,US,NY,Rome,13441,43.2289,-75.4084,526,315
1884,US,NJ,Dunellen,8812,40.6071,-74.48,501,732
1887,US,CA,Visalia,93291,36.4063,-119.3809,866,559
1891,US,NH,Nashua,3062,42.7305,-71.4958,506,603
1892,US,NH,Contoocook,3229,43.1998,-71.6954,506,603
1894,US,VT,West Wardsboro,5360,43.0256,-72.901,532,802
1895,US,VT,Ludlow,5149,43.4081,-72.7078,523,802
1896,US,VT,Rutland,5701,43.6445,-72.9005,523,802
1898,US,NH,Berlin,3570,44.4338,-71.2707,500,603
1900,US,NH,Merrimack,3054,42.8502,-71.5155,506,603
1901,US,IL,Highland Park,60035,42.189,-87.8063,602,847
1902,US,NH,Bow,3304,43.1275,-71.5456,506,603
1903,US,MD,Cockeysville,21030,39.4918,-76.6328,512,410
1904,US,NH,Salem,3079,42.795,-71.2256,506,603
1905,US,NH,Stratham,3885,43.014,-70.899,506,603
1906,US,CT,Southington,6489,41.6005,-72.8764,533,860
1907,US,NH,Colebrook,3576,44.8945,-71.4959,500,603
1908,US,VT,Pittsfield,5762,43.7782,-72.8286,523,802
1911,US,VT,Windsor,5089,43.4883,-72.4566,523,802
1913,US,NH,South Tamworth,3883,43.8166,-71.3144,500,603
1914,US,NH,Meredith,3253,43.6322,-71.5146,506,603
1915,US,MI,Utica,48315,42.6711,-82.9995,505,586
1918,US,NJ,Lebanon,8833,40.6421,-74.82,501,908
1919,US,CA,San Leandro,94578,37.7083,-122.1282,807,510
1921,US,IL,Matteson,60443,41.5061,-87.737,602,708
1923,US,IL,Maryville,62062,38.7252,-89.9671,609,618
1925,US,MA,Duxbury,2332,42.0502,-70.695,506,781
1926,US,IL,Edwardsville,62025,38.849,-89.9385,609,618
1928,US,MA,Wakefield,1880,42.5065,-71.0728,506,781
1929,US,MA,Lynn,1905,42.4642,-70.9717,506,781
1930,US,MA,Allston,2134,42.3596,-71.1287,506,617
1932,US,CA,Valley Springs,95252,38.161,-120.8414,862,209
1933,US,MA,Plymouth,2360,41.8734,-70.6394,506,508
1935,US,IL,Bethalto,62010,38.9175,-90.0562,609,618
1936,US,MI,Redford,48239,42.3758,-83.2808,505,313
1941,US,MN,Burnsville,55337,44.7799,-93.2737,613,952
1944,US,MN,Eden Prairie,55344,44.8558,-93.4408,613,952
1945,US,MN,Hopkins,55343,44.925,-93.4627,613,952
1946,US,MN,Lindstrom,55045,45.4045,-92.8325,613,651
1948,US,CT,Darien,6820,41.0787,-73.4693,501,203
1950,US,CT,Hartford,6103,41.7686,-72.6745,533,860
1951,US,IL,Elmwood Park,60707,41.9211,-87.8092,602,773
1952,US,PA,Thorndale,19372,39.9991,-75.7585,504,610
1955,US,NC,Greensboro,27407,36.0074,-79.8732,518,336
1957,US,FL,Fort Pierce,34945,27.4594,-80.5341,548,772
1958,US,NY,New City,10956,41.1557,-73.99,501,845
1959,US,IL,Morton,61550,40.6108,-89.435,675,309
1960,US,LA,Kaplan,70548,29.9845,-92.3224,642,337
1961,US,IL,Oregon,61061,41.9895,-89.2981,610,815
1962,US,IA,Davenport,52806,41.5798,-90.625,682,563
1965,US,IL,Mapleton,61547,40.6267,-89.7418,675,309
1967,US,IA,Cedar Rapids,52404,41.9106,-91.7142,637,319
1968,US,IL,Moline,61265,41.487,-90.4773,682,309
1969,US,IL,Milan,61264,41.3974,-90.5901,682,309
1970,US,IL,Crystal Lake,60014,42.2343,-88.3068,602,815
1971,US,PA,Philipsburg,16866,40.8624,-78.1734,574,814
1974,US,IA,Iowa City,52245,41.6695,-91.5133,637,319
1975,US,SC,Conway,29526,33.8634,-78.9753,570,843
1976,US,IL,Rock Island,61201,41.4867,-90.5725,682,309
1978,US,IL,Pekin,61554,40.5494,-89.6252,675,309
1979,US,CA,San Dimas,91773,34.1066,-117.815,803,909
1980,US,CA,Van Nuys,91405,34.2023,-118.4468,803,818
1982,US,PA,Beaver,15009,40.6974,-80.3735,508,724
1983,US,OK,Tonkawa,74653,36.6052,-97.326,650,580
1984,US,KY,London,40741,37.1328,-84.0964,541,606
1985,US,FL,Fort Lauderdale,33309,26.1882,-80.1711,528,954
1986,US,MN,Lakeville,55044,44.6307,-93.3034,613,952
1989,US,MN,Saint Cloud,56304,45.5248,-94.0414,613,320
1992,US,WI,Minong,54859,46.1219,-91.8009,613,715
1993,US,VA,Fairfax,22031,38.8605,-77.263,511,703
1994,US,MI,Kalkaska,49646,44.7342,-85.1759,540,231
1995,US,MI,Zeeland,49464,42.8554,-85.9714,563,616
1996,US,MI,Hillman,49746,45.0295,-83.9533,583,989
1998,US,CA,Tustin,92780,33.7458,-117.8262,803,714
1999,US,CT,New Britain,6051,41.6666,-72.7696,533,860
2001,US,MI,Hastings,49058,42.6318,-85.2931,563,269
2002,US,CT,Avon,6001,41.79,-72.8735,533,860
2005,US,MN,Chanhassen,55317,44.858,-93.5588,613,952
2006,US,CT,New London,6320,41.3452,-72.1088,533,860
2007,US,MN,Marshall,56258,44.4496,-95.7458,613,507
2008,US,CA,San Ramon,94582,37.7799,-121.978,807,925
2012,US,NY,Bellmore,11710,40.6687,-73.5271,501,516
2013,US,VA,Stafford,22556,38.4702,-77.4956,511,540
2016,US,CT,Waterbury,6702,41.559,-73.0373,533,203
2017,US,MN,Chaska,55318,44.8054,-93.6248,613,952
2018,US,MN,Mahnomen,56557,47.3252,-95.7931,724,218
2020,US,KS,Wichita,67206,37.7083,-97.2251,678,316
2022,US,NJ,Ridgefield,7657,40.8308,-74.0115,501,201
2024,US,CA,Loyalton,96118,39.6325,-120.2167,862,530
2025,US,CA,Long Beach,90802,33.7542,-118.2019,803,562
2026,US,SC,Mount Pleasant,29464,32.8229,-79.8549,519,843
2028,US,OK,Bartlesville,74003,36.7503,-96.0705,671,918
2029,US,OK,Bristow,74010,35.8191,-96.3897,671,918
2031,US,OK,Ponca City,74601,36.7164,-97.1536,650,580
2034,US,AR,Waldron,72958,34.9097,-94.0779,670,479
2035,US,TX,Rotan,79546,32.8662,-100.4676,662,325
2037,US,KS,Hutchinson,67501,37.952,-97.9771,678,620
2038,US,CA,Mather,95655,38.5496,-121.2826,862,916
2039,US,TX,Grand Prairie,75050,32.7781,-96.9555,623,972
2041,US,LA,Bastrop,71220,32.8323,-91.8968,628,318
2043,US,MA,South Deerfield,1373,42.4764,-72.6264,543,413
2046,US,MS,Starkville,39759,33.4259,-88.8303,673,662
2047,US,CA,Sacramento,95817,38.5517,-121.4501,862,916
2048,US,TX,Longview,75602,32.4519,-94.6414,709,903
2051,US,CO,Rifle,81650,39.7046,-108.0364,751,970
2053,US,MD,Linthicum Heights,21090,39.195,-76.6687,512,410
2057,US,CT,Wallingford,6492,41.4566,-72.8103,533,203
2058,US,OK,Lindsay,73052,34.8536,-97.6029,650,405
2061,US,TX,Coppell,75019,32.9588,-96.9812,623,972
2063,US,OH,Brecksville,44141,41.302,-81.6145,510,440
2064,US,TX,Mount Enterprise,75681,31.9447,-94.6982,709,903
2066,US,CO,Durango,81301,37.4509,-107.8488,790,970
2074,US,MN,Jordan,55352,44.6586,-93.5975,613,952
2076,US,IL,Des Plaines,60018,41.9986,-87.9028,602,847
2077,US,TX,Hurst,76053,32.8151,-97.1734,623,817
2078,US,PA,Monaca,15061,40.6592,-80.3247,508,724
2079,US,TX,Lubbock,79401,33.5903,-101.8519,651,806
2081,US,FL,Panama City Beach,32407,30.2092,-85.7961,656,850
2085,US,IL,Edelstein,61526,40.9228,-89.6206,675,309
2086,US,WI,Sinsinawa,53824,42.5236,-90.5393,669,608
2088,US,RI,Cranston,2910,41.7775,-71.4333,521,401
2090,US,IL,East Moline,61244,41.5212,-90.3858,682,309
2093,US,IL,Metamora,61548,40.8133,-89.4087,675,309
2096,US,MI,Ontonagon,49953,46.7781,-89.5968,553,906
2097,US,TN,Greenbrier,37073,36.4326,-86.8257,659,615
2098,US,IL,Havana,62644,40.2931,-90.0222,675,309
2099,US,SC,Hilton Head Island,29928,32.1727,-80.7488,507,843
2101,US,FL,Saint Augustine,32095,30.0312,-81.4054,561,904
2102,US,OH,Strongsville,44136,41.3132,-81.8111,510,440
2105,US,NV,Carson City,89701,39.1496,-119.7178,811,775
2106,US,CA,Stockton,95206,37.9011,-121.3995,862,209
2110,US,IL,Woodridge,60517,41.7351,-88.0447,602,630
2112,US,IL,Hinsdale,60521,41.8024,-87.9306,602,630
2115,US,IL,Cabery,60919,40.9814,-88.2453,602,815
2116,US,MI,Brighton,48116,42.5028,-83.7694,505,810
2117,US,IL,Saint Charles,60175,41.9422,-88.396,602,630
2123,US,MN,Osseo,55369,45.1194,-93.4025,613,763
2124,US,NY,Mattituck,11952,41.0036,-72.5458,501,631
2125,US,OH,Independence,44131,41.3917,-81.6417,510,216
2128,US,WI,Hayward,54843,46.0143,-91.2901,676,715
2129,US,VA,Roanoke,24014,37.2177,-79.921,573,540
2130,US,VA,Danville,24541,36.6184,-79.5372,573,434
2132,US,CA,La Crescenta,91214,34.2387,-118.2468,803,818
2134,US,OH,Beachwood,44122,41.4796,-81.511,510,216
2135,US,CA,Temple City,91780,34.1031,-118.051,803,626
2136,US,PA,Fawn Grove,17321,39.7642,-76.4474,566,717
2138,US,CA,Menlo Park,94025,37.459,-122.1781,807,650
2139,US,CA,Maywood,90270,33.9883,-118.1869,803,323
2140,US,OH,Dublin,43017,40.1176,-83.1265,535,614
2144,US,OR,Bend,97701,44.0744,-121.2574,821,541
2147,US,FL,Deerfield Beach,33442,26.3084,-80.1432,528,954
2148,US,ND,Mandan,58554,46.7582,-100.8975,687,701
2149,US,CA,San Mateo,94404,37.555,-122.2687,807,650
2151,US,MN,Elk River,55330,45.3343,-93.5677,613,763
2152,US,MN,Belle Plaine,56011,44.5834,-93.7675,613,952
2153,US,FL,Cape Canaveral,32920,28.4058,-80.6048,534,321
2158,US,CA,Brisbane,94005,37.6861,-122.4107,807,415
2159,US,FL,Brooksville,34601,28.5915,-82.3547,539,352
2161,US,NC,Rutherfordton,28139,35.3404,-82.0261,567,828
2163,US,CT,North Stonington,6359,41.4687,-71.8802,533,860
2164,US,MN,Warroad,56763,48.8523,-95.3623,724,218
2165,US,ND,Grafton,58237,48.4195,-97.3749,724,701
2169,US,CA,La Verne,91750,34.1008,-117.7678,803,909
2170,US,CA,San Clemente,92673,33.4802,-117.6141,803,949
2171,US,CA,Fountain Valley,92708,33.71,-117.9478,803,714
2172,US,CA,Diamond Bar,91765,33.9958,-117.8189,803,909
2173,US,CA,Costa Mesa,92626,33.6748,-117.9089,803,714
2179,US,CA,Azusa,91702,34.1748,-117.8751,803,626
2181,US,SC,Clover,29710,35.074,-81.2129,517,803
2189,US,MO,Belton,64012,38.812,-94.5319,616,816
2193,US,CA,Walnut,91789,34.0115,-117.8535,803,909
2194,US,MD,Crofton,21114,39.0142,-76.6794,512,410
2195,US,CA,Westlake Village,91361,34.1444,-118.8935,803,805
2198,US,CA,Temecula,92591,33.53,-117.1035,803,951
2200,US,CA,Fullerton,92835,33.9019,-117.9108,803,714
2206,US,CA,Brea,92821,33.9269,-117.8612,803,714
2208,US,KY,Georgetown,40324,38.2532,-84.5524,541,502
2213,US,NY,East Aurora,14052,42.768,-78.5801,514,716
2216,US,WA,Kent,98031,47.4084,-122.1957,819,253
2218,US,CA,Laguna Hills,92653,33.6053,-117.7173,803,949
2219,US,CA,Aliso Viejo,92656,33.5717,-117.7289,803,949
2223,US,CA,La Puente,91746,34.0463,-117.9849,803,626
2224,US,CA,Yorba Linda,92887,33.8879,-117.7286,803,714
2227,US,CA,Pomona,91766,34.039,-117.7548,803,909
2231,US,GA,Augusta,30907,33.5242,-82.0926,520,706
2235,US,CA,Chico,95928,39.7158,-121.8147,868,530
2237,US,CA,Moorpark,93021,34.3106,-118.8787,803,805
2240,US,WI,Neenah,54956,44.1843,-88.5305,658,920
2241,US,IL,Schaumburg,60173,42.0534,-88.054,602,847
2244,US,IL,Elgin,60123,42.0358,-88.3801,602,847
2245,US,IL,Itasca,60143,41.9708,-88.0179,602,630
2246,US,GA,Cairo,,30.8774,-84.2013,530,229
2247,US,IL,Mchenry,60050,42.3595,-88.2734,602,815
2248,US,IL,Rolling Meadows,60008,42.0678,-88.0185,602,847
2249,US,IL,Lincolnshire,60069,42.1973,-87.9241,602,847
2251,US,PA,State College,16803,40.7975,-77.9021,574,814
2252,US,IL,Vernon Hills,60061,42.2325,-87.9634,602,847
2253,US,NJ,Elizabeth,7201,40.6728,-74.179,501,908
2254,US,CO,Greeley,80634,40.3996,-104.8002,751,970
2255,US,MA,Mansfield,2048,42.0166,-71.2231,521,508
2256,US,IL,Amf Ohare,60666,41.9724,-87.8951,602,773
2258,US,TN,Knoxville,37918,36.0582,-83.9147,557,865
2261,US,TX,North Richland Hills,76180,32.8659,-97.2176,623,817
2264,US,CA,Diamond Springs,95619,38.6779,-120.8103,862,530
2266,US,IL,Bloomingdale,60108,41.9484,-88.0947,602,630
2267,US,IL,Arlington Heights,60004,42.113,-87.9807,602,847
2273,US,TX,Pampa,79065,35.5362,-100.9599,634,806
2274,US,IL,Mundelein,60060,42.2667,-88.0508,602,847
2275,US,IL,Barrington,60010,42.1584,-88.1592,602,847
2276,US,IL,Dekalb,60115,41.8963,-88.7442,602,815
2279,US,OK,Newcastle,73065,35.2323,-97.6008,650,405
2280,US,MD,Rockville,20850,39.0892,-77.1835,511,301
2281,US,IL,Bensenville,60106,41.9619,-87.9473,602,630
2282,US,IL,Roselle,60172,41.9792,-88.0895,602,630
2286,US,NY,Germantown,12526,42.1261,-73.8633,532,518
2288,US,VT,Shelburne,5482,44.396,-73.2074,523,802
2293,US,VT,South Burlington,5403,44.4524,-73.1841,523,802
2294,US,VT,North Troy,5859,44.9381,-72.4418,523,802
2295,US,NY,Ballston Lake,12019,42.9233,-73.8407,532,518
2296,US,NY,Clifton Park,12065,42.8571,-73.7993,532,518
2297,US,VT,Newport,5855,44.9364,-72.2051,523,802
2299,US,VT,Jeffersonville,5464,44.6407,-72.8072,523,802
2301,US,NY,East Greenbush,12061,42.6012,-73.6525,532,518
2302,US,MI,Carney,49812,45.5878,-87.4812,658,906
2303,US,NY,Cobleskill,12043,42.7042,-74.5278,532,518
2304,US,NY,Schenectady,12302,42.8822,-73.9916,532,518
2305,US,NY,Voorheesville,12186,42.6213,-73.9721,532,518
2307,US,NY,Gansevoort,12831,43.1952,-73.6846,532,518
2308,US,NY,Somers,10589,41.3246,-73.6976,501,914
2310,US,CA,West Hollywood,90069,34.0943,-118.3811,803,310
2311,US,CA,Chatsworth,91311,34.2868,-118.614,803,818
2312,US,NC,Shelby,28150,35.3625,-81.5741,517,704
2318,US,NY,Rouses Point,12979,44.9869,-73.3717,523,518
2321,US,VT,Montpelier,5602,44.2788,-72.6171,523,802
2322,US,NC,Asheville,28806,35.5683,-82.6272,567,828
2323,US,NY,Hogansburg,13655,44.9759,-74.6203,523,518
2325,US,NY,Fultonville,12072,42.8734,-74.3587,532,518
2327,US,NY,Saratoga Springs,12866,43.0535,-73.7517,532,518
2329,US,NY,Keeseville,12944,44.4413,-73.5212,523,518
2330,US,NY,Athens,12015,42.2823,-73.8294,532,518
2333,US,VT,Colchester,5446,44.55,-73.1552,523,802
2334,US,VT,Stowe,5672,44.4653,-72.6846,523,802
2335,US,VT,Essex Junction,5452,44.5327,-73.058,523,802
2337,US,IN,Valparaiso,46385,41.4731,-87.0611,602,219
2338,US,IN,Dyer,46311,41.461,-87.517,602,219
2339,US,IN,Merrillville,46410,41.4793,-87.3164,602,219
2340,US,IL,Manteno,60950,41.2541,-87.8912,602,815
2341,US,IL,Saint Anne,60964,41.0412,-87.6882,602,815
2344,US,IL,Harvey,60426,41.6088,-87.6739,602,708
2345,US,IL,Sheldon,60966,40.7517,-87.5896,602,815
2347,US,MI,New Buffalo,49117,41.7939,-86.7405,588,269
2348,US,IL,Chicago Heights,60411,41.5138,-87.5997,602,708
2349,US,IL,Kankakee,60901,41.119,-87.9259,602,815
2350,US,VA,Chilhowie,24319,36.7687,-81.5972,531,276
2351,US,MD,Gaithersburg,20878,39.1148,-77.2462,511,301
2352,US,CA,North Hollywood,91601,34.1683,-118.373,803,818
2354,US,NC,Hillsborough,27278,36.0755,-79.0741,560,919
2355,US,NC,Dunn,28334,35.2763,-78.5468,560,910
2357,US,OK,Sulphur,73086,34.4847,-96.9586,650,580
2358,US,CA,Novato,94945,38.1348,-122.561,807,415
2360,US,NC,Angier,27501,35.4832,-78.6798,560,919
2362,US,NC,Warsaw,28398,34.986,-78.0524,545,910
2363,US,FL,Riverview,33569,27.8223,-82.2797,539,813
2364,US,NC,Wallace,28466,34.7316,-77.9353,545,910
2365,US,NC,Kill Devil Hills,27948,36.02,-75.6699,544,252
2367,US,SC,Greer,29650,34.9011,-82.2662,567,864
2368,US,NJ,Bedminster,7921,40.656,-74.6774,501,908
2372,US,OK,Fort Cobb,73038,35.1236,-98.4249,650,405
2373,US,NC,Southport,28461,33.997,-78.0729,550,910
2374,US,NC,Pittsboro,27312,35.7519,-79.2248,560,919
2376,US,CA,Anderson,96007,40.4458,-122.3548,868,530
2378,US,GA,Hiawassee,30546,34.8915,-83.6861,524,706
2381,US,CA,Bishop,93514,37.506,-118.3114,803,760
2382,US,CA,West Sacramento,95691,38.6667,-121.6293,862,916
2383,US,CA,Agoura Hills,91301,34.1267,-118.7648,803,818
2384,US,TX,Garland,75041,32.8756,-96.6482,623,972
2385,US,GA,Stockbridge,30281,33.5547,-84.1872,524,770
2386,US,AL,Dothan,36301,31.1503,-85.4114,606,334
2388,US,CA,Placerville,95667,38.7296,-120.7986,862,530
2390,US,NC,Goldsboro,27534,35.3673,-77.9122,560,919
2393,US,NC,High Point,27265,36.0162,-80.0434,518,336
2394,US,NC,Wilson,27893,35.68,-77.9126,560,252
2395,US,NC,Statesville,28677,35.725,-80.9069,517,704
2396,US,NC,Clinton,28328,34.9861,-78.3434,560,910
2400,US,MI,Williamston,48895,42.6816,-84.2717,551,517
2403,US,KY,Glasgow,42141,36.9376,-85.9463,736,270
2410,US,TN,Antioch,37013,36.0371,-86.6372,659,615
2412,US,FL,Palm Beach Gardens,33410,26.8234,-80.1386,548,561
2413,US,TN,Deer Lodge,37726,36.2096,-84.8365,557,423
2414,US,TN,White House,37188,36.4817,-86.6756,659,615
2416,US,NV,Reno,89502,39.4896,-119.7492,811,775
2418,US,KY,Mayfield,42066,36.7364,-88.6388,632,270
2420,US,TN,Elizabethton,37643,36.4199,-82.1139,531,423
2421,US,GA,Fort Valley,31030,32.5724,-83.8921,503,478
2422,US,KY,Madisonville,42431,37.3268,-87.4696,649,270
2423,US,TN,La Vergne,37086,36.0212,-86.5595,659,615
2424,US,TN,Smyrna,37167,35.9593,-86.542,659,615
2425,US,MS,Holly Springs,38635,34.7746,-89.4533,640,662
2426,US,PA,Harrisburg,17111,40.2762,-76.7889,566,717
2427,US,TN,Cookeville,38506,36.192,-85.4559,659,931
2429,US,KY,Cave City,42127,37.1243,-85.91,736,270
2431,US,KY,Paducah,42001,37.0383,-88.7157,632,270
2433,US,TN,Mount Juliet,37122,36.1718,-86.4904,659,615
2435,US,TN,Tullahoma,37388,35.3512,-86.1838,659,931
2436,US,OH,Marysville,43040,40.254,-83.3685,535,937
2437,US,TN,Goodlettsville,37072,36.3545,-86.7628,659,615
2438,US,NJ,Princeton,8540,40.3756,-74.6597,504,609
2439,US,TN,Madison,37115,36.2558,-86.6991,659,615
2440,US,TN,Lafayette,37083,36.5278,-86.0058,659,615
2441,US,KY,Oak Grove,42262,36.6977,-87.4527,659,270
2444,US,KY,Morgantown,42261,37.167,-86.7497,736,270
2445,US,TN,Crossville,38555,35.8713,-84.9835,557,931
2446,US,MI,Harper Woods,48225,42.436,-82.9317,505,313
2447,US,NC,Fort Bragg,28307,35.1462,-78.9943,560,910
2449,US,CA,Avila Beach,93424,35.18,-120.7318,855,805
2452,US,TN,Martin,38237,36.3838,-88.8319,632,731
2458,US,NC,Hendersonville,28791,35.3621,-82.5082,567,828
2459,US,NC,Huntersville,28078,35.4034,-80.8611,517,704
2461,US,NC,Lumberton,28358,34.6008,-78.9673,570,910
2463,US,SC,Spartanburg,29301,34.9318,-82.0102,567,864
2466,US,NC,Lenoir,28645,35.9726,-81.5513,517,828
2468,US,SC,Ravenel,29470,32.8073,-80.2584,519,843
2469,US,NY,West Nyack,10994,41.0974,-73.9701,501,845
2470,US,SC,Piedmont,29673,34.7266,-82.4598,567,864
2471,US,NC,Thomasville,27360,35.8826,-80.082,518,336
2473,US,NC,Kings Mountain,28086,35.2558,-81.3707,517,704
2474,US,NC,Mount Holly,28120,35.3235,-81.0215,517,704
2478,US,NC,Mooresville,28115,35.5849,-80.8101,517,704
2479,US,NY,Port Chester,10573,41.0232,-73.6795,501,914
2482,US,NC,Arden,28704,35.4589,-82.6035,567,828
2483,US,NC,Conover,28613,35.7427,-81.2093,517,828
2486,US,NC,Laurinburg,28352,34.7678,-79.4639,570,910
2491,US,TN,Kingsport,37663,36.4601,-82.5012,531,423
2492,US,CO,Littleton,80126,39.5347,-104.9582,751,303
2493,US,TN,Johnson City,37615,36.3891,-82.4511,531,423
2495,US,NY,Sterling Forest,10979,41.1826,-74.3188,501,845
2496,US,SC,Wellford,29385,34.9739,-82.1012,567,864
2497,US,IL,Loves Park,61111,42.3296,-88.9995,610,815
2499,US,CT,Stamford,6904,41.0534,-73.5387,501,203
2507,US,NJ,Skillman,8558,40.4112,-74.6919,501,609
2508,US,NJ,Cranbury,8512,40.3179,-74.5341,501,609
2512,US,MI,Novi,48375,42.4634,-83.4646,505,248
2517,US,NJ,Monroe Township,8831,40.3305,-74.4179,501,732
2518,US,NJ,Plainsboro,8536,40.3289,-74.5857,501,609
2519,US,NV,North Las Vegas,89030,36.2187,-115.1293,839,702
2520,US,LA,Mandeville,70471,30.4184,-90.0069,622,985
2523,US,CA,Oxnard,93030,34.198,-119.1726,803,805
2524,US,VA,Marion,24354,36.8243,-81.5681,531,276
2525,US,NY,Syosset,11791,40.8294,-73.5052,501,516
2526,US,NC,Kinston,28504,35.2375,-77.6151,545,252
2527,US,NJ,Rancocas,8073,40.0107,-74.8668,504,609
2530,US,NJ,Princeton Junction,8550,40.283,-74.6217,504,609
2531,US,NJ,Monmouth Junction,8852,40.3929,-74.5412,501,732
2536,US,NJ,Hightstown,8520,40.2485,-74.5315,504,609
2537,US,NJ,Hainesport,8036,39.971,-74.8473,504,609
2545,US,CA,Edwards,93524,35.2944,-118.9052,803,661
2546,US,WI,Waukesha,53186,43.0302,-88.2153,617,262
2550,US,TX,Marble Falls,78654,30.5632,-98.1112,635,830
2551,US,SC,Fountain Inn,29644,34.6734,-82.1998,567,864
2554,US,IL,Schiller Park,60176,41.9637,-87.8841,602,847
2556,US,OK,Stringtown,74569,34.4624,-95.9026,657,580
2558,US,OR,Sisters,97759,44.4102,-121.9283,821,541
2560,US,OH,Westlake,44145,41.4446,-81.922,510,440
2561,US,NJ,Cherry Hill,8034,39.9068,-74.9966,504,856
2562,US,NJ,Egg Harbor Township,8234,39.387,-74.6217,504,609
2565,US,MI,Monroe,48162,41.9505,-83.4457,505,734
2566,US,OK,Broken Bow,74728,34.1744,-94.7262,612,580
2568,US,NJ,Hammonton,8037,39.6363,-74.7633,504,609
2569,US,NJ,Tuckerton,8087,39.5996,-74.3687,501,609
2570,US,OR,Roseburg,97470,43.2179,-123.4021,801,541
2571,US,NJ,Absecon,8201,39.4209,-74.4977,504,609
2572,US,CA,San Rafael,94901,37.9719,-122.5023,807,415
2573,US,PA,Altoona,16602,40.5172,-78.3662,574,814
2574,US,PA,Chambersburg,17201,39.9376,-77.6611,511,717
2575,US,PA,Du Bois,15801,41.1172,-78.6861,574,814
2576,US,PA,Bellefonte,16823,40.9354,-77.7831,574,814
2578,US,PA,Hummelstown,17036,40.3084,-76.6954,566,717
2580,US,PA,Bird In Hand,17505,40.0506,-76.1703,566,717
2582,US,PA,York,17402,40.002,-76.6836,566,717
2583,US,PA,Gratz,17030,40.609,-76.7273,566,717
2584,US,PA,Mercersburg,17236,39.8294,-77.9785,511,717
2586,US,PA,Mechanicsburg,17055,40.1814,-76.9969,566,717
2587,US,OH,Medina,44256,41.1343,-81.8559,510,330
2590,US,OH,Wadsworth,44281,41.0621,-81.7451,510,330
2592,US,MD,Halethorpe,21227,39.2434,-76.6803,512,410
2593,US,PA,New Castle,16101,40.9708,-80.301,508,724
2595,US,PA,Warrendale,15086,40.6594,-80.0933,508,724
2597,US,PA,Bridgeville,15017,40.3456,-80.1342,508,412
2598,US,PA,Perryopolis,15473,40.0702,-79.7471,508,724
2601,US,OH,Derwent,43733,39.9231,-81.5443,554,740
2602,US,PA,Aliquippa,15001,40.589,-80.3279,508,724
2603,US,PA,Friedens,15541,40.0666,-78.9667,574,814
2605,US,PA,Mercer,16137,41.2225,-80.2521,536,724
2606,US,TX,Baytown,77520,29.7709,-94.9071,618,281
2607,US,IL,Carlinville,62626,39.284,-89.8698,609,217
2609,US,FL,Panama City,32408,30.1521,-85.7267,656,850
2610,US,PA,Monroeville,15146,40.4235,-79.7588,508,412
2611,US,PA,Portage,15946,40.3631,-78.6448,574,814
2612,US,MI,Ann Arbor,48104,42.2734,-83.7133,505,734
2614,US,MD,Friendsville,21531,39.6368,-79.4068,508,301
2615,US,PA,Eighty Four,15330,40.1756,-80.1055,508,724
2616,US,WV,Davis,26260,39.0598,-79.4005,598,304
2617,US,PA,Braddock,15104,40.4031,-79.8638,508,412
2619,US,MS,Hernando,38632,34.8033,-89.9895,640,662
2622,US,TN,Selmer,38375,35.1599,-88.6035,640,731
2623,US,MO,Freeman,64746,38.6121,-94.4876,616,816
2624,US,MO,Blue Springs,64014,39.005,-94.2499,616,816
2625,US,KS,Leawood,66206,38.9586,-94.6202,616,913
2628,US,OR,Shady Cove,97539,42.6107,-122.8125,813,541
2631,US,KS,Topeka,66604,39.038,-95.7278,605,785
2632,US,MO,Raymore,64083,38.797,-94.4492,616,816
2634,US,MO,Bethany,64424,40.2656,-94.0121,616,660
2635,US,AR,Osceola,72370,35.6906,-90.0068,640,870
2637,US,KS,Shawnee,66216,39.0147,-94.7395,616,913
2639,US,MO,Higginsville,64037,39.0398,-93.7367,616,660
2644,US,KS,Lawrence,66047,38.8916,-95.3418,616,785
2645,US,CA,North Highlands,95660,38.6681,-121.3736,862,916
2647,US,KS,Powhattan,66527,39.7327,-95.676,605,785
2648,US,MO,Stanberry,64489,40.2274,-94.5558,616,660
2650,US,KS,Emporia,66801,38.4039,-96.1817,605,620
2654,US,KS,Salina,67401,38.8522,-97.6142,678,785
2655,US,AR,Morrilton,72110,35.1717,-92.7447,693,501
2659,US,OR,Sheridan,97378,45.1016,-123.4197,820,503
2660,US,KS,Leavenworth,66048,39.2956,-94.9803,616,913
2661,US,MO,Monett,65708,36.9251,-93.9197,619,417
2666,US,MO,Saint Joseph,64506,39.7945,-94.8042,638,816
2668,US,OK,Broken Arrow,74014,36.0271,-95.5576,671,918
2669,US,MO,Lees Summit,64086,38.9145,-94.3006,616,816
2670,US,IL,Orland Park,60462,41.6163,-87.8371,602,708
2671,US,KS,Manhattan,66503,39.2483,-96.6849,605,785
2675,US,CT,Westbrook,6498,41.3083,-72.4653,533,860
2676,US,MO,Harrisonville,64701,38.6089,-94.3093,616,816
2679,US,IN,New Salisbury,47161,38.322,-86.1021,529,812
2680,US,SC,Myrtle Beach,29579,33.7527,-78.9071,570,843
2682,US,NJ,Liberty Corner,7938,40.6648,-74.5774,501,908
2683,US,AR,El Dorado,71730,33.1929,-92.6434,628,870
2685,US,MO,Boonville,65233,38.9736,-92.7432,604,660
2686,US,CA,Burlingame,94010,37.5671,-122.371,807,650
2691,US,TX,Cameron,76520,30.847,-96.8972,625,254
2692,US,CA,Palo Alto,94306,37.4135,-122.1312,807,650
2693,US,PA,Warrington,18976,40.2489,-75.1498,504,215
2697,US,TX,Temple,76502,31.1064,-97.4071,625,254
2698,US,IL,Robinson,62454,38.9887,-87.7452,581,618
2699,US,IL,Carlyle,62231,38.6147,-89.3238,609,618
2700,US,CA,Redwood City,94063,37.4914,-122.211,807,650
2701,US,IN,Terre Haute,47802,39.3579,-87.4245,581,812
2702,US,IL,Carbondale,62901,37.7327,-89.2034,632,618
2706,US,IN,Shelbyville,46176,39.5239,-85.7853,527,317
2708,US,CA,Los Altos,94022,37.3622,-122.14,807,650
2710,US,WI,De Pere,54115,44.3906,-88.031,658,920
2711,US,WI,Baileys Harbor,54202,45.0855,-87.1413,658,920
2718,US,CT,New Haven,6511,41.3094,-72.924,533,203
2721,US,LA,Sterlington,71280,32.7245,-92.1215,628,318
2724,US,CA,San Carlos,94070,37.498,-122.2672,807,650
2725,US,CT,North Haven,6473,41.3834,-72.8626,533,203
2726,US,CA,Millbrae,94030,37.5981,-122.4025,807,650
2730,US,OR,Chiloquin,97624,42.7267,-121.7964,813,541
2732,US,CA,Union City,94587,37.5963,-122.0657,807,510
2733,US,MO,Allendale,64420,40.4856,-94.2886,679,660
2734,US,NY,Oneonta,13820,42.4867,-75.0397,526,607
2736,US,OR,Eugene,97401,44.069,-123.0825,801,541
2740,US,IN,Connersville,47331,39.6539,-85.1518,527,765
2742,US,CA,Nicolaus,95659,38.833,-121.5886,862,530
2743,US,VA,Ashland,23005,37.7563,-77.4888,556,804
2746,US,IA,Sergeant Bluff,51054,42.3728,-96.277,624,712
2748,US,NC,Morganton,28655,35.7612,-81.728,517,828
2753,US,KY,Paris,40361,38.2133,-84.2256,541,859
2755,US,IL,Wilmette,60091,42.0772,-87.7286,602,847
2756,US,IA,Sioux City,51106,42.4632,-96.322,624,712
2757,US,IA,Council Bluffs,51501,41.2324,-95.8762,652,712
2759,US,MS,Southaven,38671,34.9489,-89.9665,640,901
2761,US,MD,Windsor Mill,21244,39.3354,-76.7888,512,410
2766,US,NE,Blair,68008,41.538,-96.1944,652,402
2767,US,IA,Spencer,51301,43.1474,-95.1425,624,712
2769,US,NJ,Little Falls,7424,40.8834,-74.2143,501,973
2770,US,WI,Hartland,53029,43.1311,-88.3359,617,262
2771,US,IA,Denison,51442,42.023,-95.3634,652,712
2773,US,OR,Klamath Falls,97603,42.1851,-121.6141,813,541
2776,US,IN,Linton,47441,39.0396,-87.1565,581,812
2777,US,AZ,Mohave Valley,86440,34.8615,-114.5193,753,928
2778,US,WI,Mayville,53050,43.4943,-88.5473,617,920
2781,US,OR,Tangent,97389,44.5408,-123.0851,820,541
2782,US,NE,Hooper,68031,41.6405,-96.5021,652,402
2786,US,NE,Wisner,68791,41.9849,-96.8939,652,402
2787,US,GA,Tucker,30084,33.856,-84.2129,524,770
2791,US,LA,Choudrant,71227,32.5584,-92.4838,628,318
2792,US,AL,Demopolis,36732,32.415,-87.9151,698,334
2793,US,AL,Vernon,35592,33.7414,-88.1001,673,205
2796,US,IL,Buffalo Grove,60089,42.1695,-87.9588,602,847
2797,US,AL,Andalusia,36420,31.2487,-86.5897,698,334
2799,US,AL,Bessemer,35020,33.4023,-86.939,630,205
2800,US,MS,Meridian,39301,32.2883,-88.588,711,601
2801,US,AL,Pelham,35124,33.3151,-86.756,630,205
2802,US,AL,Elba,36323,31.4209,-86.0609,606,334
2804,US,AL,Union Springs,36089,32.1656,-85.6708,698,334
2806,US,AL,Decatur,35601,34.6065,-87.0078,691,256
2810,US,OR,Corvallis,97333,44.4698,-123.343,801,541
2811,US,MO,Hazelwood,63042,38.789,-90.3829,609,314
2814,US,IL,East Peoria,61611,40.7225,-89.5303,675,309
2816,US,GA,Conley,30288,33.652,-84.3201,524,404
2818,US,MT,Big Sky,59716,45.2846,-111.3683,754,406
2821,US,TN,Dandridge,37725,36.0291,-83.4547,557,865
2827,US,PA,Greensburg,15601,40.3356,-79.5507,508,724
2831,US,FL,Bradenton,34202,27.4138,-82.3698,539,941
2832,US,OH,Youngstown,44503,41.0998,-80.6495,536,330
2833,US,GA,Morrow,30260,33.5855,-84.3279,524,404
2834,US,SC,Aiken,29801,33.5982,-81.6712,520,803
2835,US,CO,Steamboat Springs,80477,40.485,-106.8317,751,970
2836,US,VA,Virginia Beach,23464,36.7968,-76.1767,544,757
2839,US,PA,Butler,16001,40.914,-79.932,508,724
2844,US,OR,Gilchrist,97737,43.5191,-121.6481,813,541
2846,US,WA,Vancouver,98683,45.6023,-122.5167,820,360
2849,US,GA,Macon,31217,32.8293,-83.4928,503,478
2850,US,MO,Dexter,63841,36.7808,-89.9999,632,573
2851,US,TX,Flower Mound,75022,33.029,-97.1123,623,972
2855,US,SC,Bluffton,29910,32.2528,-80.8895,507,843
2856,US,TX,Dripping Springs,78620,30.2257,-98.1268,635,512
2857,US,IL,West Salem,62476,38.53,-88.0056,649,618
2860,US,OR,Clackamas,97015,45.4133,-122.4992,820,503
2863,US,OR,Oregon City,97045,45.3573,-122.6068,820,503
2864,US,WA,Washougal,98671,45.6173,-122.236,820,360
2868,US,FL,Belle Glade,33430,26.6951,-80.643,548,561
2871,US,OR,Junction City,97448,44.2119,-123.285,801,541
2872,US,OR,Wilsonville,97070,45.3084,-122.7799,820,503
2877,US,NJ,Pennsauken,8110,39.972,-75.0479,504,856
2881,US,CA,Lakehead,96051,40.9051,-122.3792,868,530
2882,US,FL,Winter Park,32792,28.6079,-81.3055,534,407
2883,US,FL,Kissimmee,34746,28.2423,-81.4456,534,407
2884,US,GA,Fitzgerald,31750,31.7198,-83.2132,525,229
2885,US,MD,Hagerstown,21740,39.6291,-77.7128,511,301
2886,US,WV,Ripley,25271,38.7869,-81.6817,564,304
2887,US,CA,Turlock,95382,37.5372,-120.8487,862,209
2889,US,FL,Lake Mary,32746,28.7589,-81.3178,534,407
2891,US,FL,Ocala,34481,29.1178,-82.3122,534,352
2892,US,FL,Melbourne,32904,28.0782,-80.7534,534,321
2893,US,OR,Hillsboro,97124,45.5848,-122.9117,820,503
2894,US,WA,Kalama,98625,46.0133,-122.708,820,360
2896,US,OR,Gresham,97030,45.5076,-122.4307,820,503
2897,US,NJ,Far Hills,7931,40.7162,-74.6183,501,908
2900,US,FL,Hialeah,33015,25.9372,-80.317,528,305
2901,US,FL,Vero Beach,32963,27.7085,-80.389,548,772
2906,US,TX,Sealy,77474,29.7784,-96.1817,618,979
2908,US,FL,North Fort Myers,33917,26.7144,-81.8434,571,239
2909,US,NJ,Parsippany,7054,40.8597,-74.4026,501,973
2912,US,TX,Schertz,78154,29.5892,-98.2939,641,210
2913,US,FL,North Palm Beach,33408,26.8542,-80.0547,548,561
2915,US,FL,Naples,34109,26.2385,-81.7641,571,239
2924,US,FL,Polk City,33868,28.2321,-81.8115,539,863
2926,US,TX,Dilley,78017,28.7416,-99.2253,641,830
2927,US,TX,Nederland,77627,29.9804,-94.0027,692,409
2928,US,FL,Punta Gorda,33982,26.9023,-81.7894,571,941
2930,US,FL,Auburndale,33823,28.0795,-81.8037,539,863
2932,US,FL,Lake Wales,33853,27.9014,-81.5859,539,863
2935,US,MS,Mendenhall,39114,31.9373,-89.8174,718,601
2937,US,LA,Donaldsonville,70346,30.1361,-91.0544,716,225
2938,US,LA,Hammond,70401,30.5315,-90.4628,622,985
2941,US,AL,Axis,36505,30.9543,-88.0098,686,251
2942,US,TX,South Padre Island,78597,26.2394,-97.1853,636,956
2947,US,MI,Kalamazoo,49004,42.3541,-85.547,563,269
2948,US,MS,Brandon,39042,32.2161,-89.8899,718,601
2949,US,TX,Encinal,78019,28.0305,-99.4187,749,956
2950,US,MS,Laurel,39440,31.6941,-89.1306,710,601
2953,US,OR,Willamina,97396,45.1388,-123.5121,820,503
2954,US,FL,Niceville,32578,30.5169,-86.4822,686,850
2956,US,TX,Victoria,77905,28.7466,-97.0165,626,361
2957,US,FL,Pensacola,32503,30.4621,-87.2174,686,850
2961,US,MS,Ridgeland,39157,32.4326,-90.1556,718,601
2963,US,LA,New Iberia,70560,29.9579,-91.8721,642,337
2964,US,TX,Seabrook,77586,29.5813,-95.0273,618,281
2965,US,DE,Millsboro,19966,38.5608,-75.3351,576,302
2966,US,PA,Huntingdon Valley,19006,40.1226,-75.0635,504,215
2968,US,IL,Westville,61883,40.0466,-87.6356,648,217
2969,US,MD,Queenstown,21658,38.9399,-76.1332,512,410
2971,US,DE,Delmar,19940,38.4864,-75.5439,576,302
2975,US,MD,Savage,20763,39.1356,-76.8276,512,301
2976,US,KY,Bowling Green,42101,37.0941,-86.4286,736,270
2977,US,PA,Langhorne,19047,40.1804,-74.893,504,215
2978,US,PA,Jenkintown,19046,40.0979,-75.1078,504,215
2983,US,TX,Dickinson,77539,29.4568,-95.0185,618,281
2987,US,FL,Altamonte Springs,32714,28.6653,-81.4188,534,407
2988,US,TX,Galveston,77550,29.3066,-94.7723,618,409
2989,US,NH,Weare,3281,43.0948,-71.7306,506,603
2990,US,WV,Parkersburg,26101,39.243,-81.5772,597,304
2991,US,OH,Benton Ridge,45816,41.0048,-83.7941,547,419
2992,US,OH,Waverly,45690,39.1527,-83.0391,535,740
2995,US,OH,Hilliard,43026,40.0231,-83.181,535,614
2996,US,FL,Alva,33920,26.7416,-81.6363,571,239
3002,US,OH,Akron,44333,41.1537,-81.6374,510,330
3004,US,IL,Roxana,62084,38.846,-90.0624,609,618
3009,US,OH,Plain City,43064,40.103,-83.2891,535,614
3011,US,IN,Fishers,46038,39.961,-85.9837,527,317
3012,US,KY,Grayson,41143,38.3364,-82.9924,564,606
3014,US,WV,Saint Albans,25177,38.3633,-81.8089,564,304
3015,US,OH,Carroll,43112,39.8037,-82.7083,535,740
3016,US,WV,Gallagher,25083,38.0747,-81.3757,564,304
3019,US,OH,Grove City,43123,39.8639,-83.1201,535,614
3020,US,OH,Stow,44224,41.1741,-81.4389,510,330
3023,US,TX,Humble,77338,30.0041,-95.2984,618,281
3024,US,TX,Texas City,77591,29.4009,-95.0005,618,409
3030,US,WV,Scott Depot,25560,38.4508,-81.8948,564,304
3032,US,OH,Xenia,45385,39.678,-83.9027,542,937
3033,US,WV,Beckley,25801,37.8164,-81.2329,559,304
3034,US,OH,Canal Winchester,43110,39.8251,-82.7958,535,614
3037,US,OH,Reynoldsburg,43068,39.9548,-82.7693,535,614
3038,US,PA,Lock Haven,17745,41.3252,-77.4584,577,570
3039,US,OH,Piketon,45661,39.0485,-83.1662,535,740
3040,US,MD,Annapolis Junction,20701,39.1293,-76.7671,512,301
3041,US,VA,Haymarket,20169,38.8694,-77.6373,511,703
3048,US,VA,Lorton,22079,38.6911,-77.206,511,703
3051,US,MO,Kingdom City,65262,38.9616,-91.9341,604,573
3052,US,VA,Chantilly,20151,38.9036,-77.4512,511,703
3053,US,MD,Fort Washington,20744,38.7551,-76.9805,511,301
3054,US,VA,Woodbridge,22193,38.6419,-77.3463,511,703
3055,US,MD,Leonardtown,20650,38.2764,-76.6241,511,301
3060,US,CA,Compton,90220,33.8748,-118.2406,803,310
3065,US,WI,Richfield,53076,43.2695,-88.2117,617,262
3066,US,MD,Accokeek,20607,38.6591,-77.0367,511,301
3067,US,VA,Weyers Cave,24486,38.2927,-78.9349,569,540
3069,US,WI,Chippewa Falls,54729,44.9617,-91.4403,702,715
3072,US,MD,Potomac,20854,39.0274,-77.2365,511,301
3073,US,MD,Waldorf,20601,38.6252,-76.878,511,301
3075,US,WI,Brookfield,53005,43.0606,-88.0981,617,262
3077,US,FL,Bonita Springs,34134,26.3633,-81.8336,571,239
3081,US,VA,Mechanicsville,23116,37.6788,-77.3265,556,804
3086,US,PA,Mifflintown,17059,40.5965,-77.3573,566,717
3089,US,IL,Hopedale,61747,40.428,-89.4353,675,309
3091,US,TX,Wylie,75098,33.0162,-96.5382,623,972
3092,US,RI,Smithfield,2917,41.904,-71.5266,521,401
3095,US,NY,New Windsor,12553,41.4468,-74.0689,501,845
3096,US,NY,Blauvelt,10913,41.0689,-73.9599,501,845
3097,US,NY,Tarrytown,10591,41.0837,-73.8397,501,914
3098,US,NY,Rye,10580,40.9777,-73.6935,501,914
3099,US,NY,White Plains,10601,41.0291,-73.758,501,914
3100,US,NY,Harrison,10528,40.9795,-73.7231,501,914
3101,US,NY,Peekskill,10566,41.2879,-73.917,501,914
3102,US,NY,Kingston,12401,41.9389,-73.9901,501,845
3104,US,NY,New Rochelle,10805,40.8989,-73.7814,501,914
3105,US,NY,Brewster,10509,41.4172,-73.5971,501,845
3106,US,NY,Newburgh,12550,41.5375,-74.0512,501,845
3107,US,NY,Lagrangeville,12540,41.6684,-73.7225,501,845
3108,US,NC,Bakersville,28705,36.0403,-82.1599,567,828
3109,US,NY,Wappingers Falls,12590,41.5861,-73.883,501,845
3110,US,NY,Valley Cottage,10989,41.1222,-73.9355,501,845
3113,US,TX,College Station,77840,30.6131,-96.3217,625,979
3116,US,NY,Hauppauge,11788,40.8257,-73.2026,501,631
3117,US,NY,Nanuet,10954,41.0965,-74.0093,501,845
3119,US,NY,Briarcliff Manor,10510,41.1468,-73.8318,501,914
3120,US,NY,Woodbury,11797,40.8181,-73.4721,501,516
3121,US,NY,Ossining,10562,41.1879,-73.8315,501,914
3122,US,NY,Melville,11747,40.785,-73.4062,501,631
3124,US,NJ,Saddle River,7458,41.0318,-74.1021,501,201
3127,US,NJ,Carlstadt,7072,40.829,-74.0672,501,201
3128,US,NJ,Moonachie,7074,40.8398,-74.0577,501,201
3129,US,NJ,Northvale,7647,41.0081,-73.9441,501,201
3130,US,NJ,Mahwah,7430,41.078,-74.1764,501,201
3132,US,NJ,Totowa,7512,40.9037,-74.2247,501,973
3133,US,NJ,Cresskill,7626,40.9403,-73.9576,501,201
3134,US,NJ,Hackensack,7601,40.8859,-74.0468,501,201
3135,US,NJ,Lakewood,8701,40.0721,-74.2069,501,732
3136,US,NJ,Oradell,7649,40.9558,-74.0268,501,201
3143,US,AR,Beebe,72012,35.1144,-91.9067,693,501
3145,US,AR,Stuttgart,72160,34.4396,-91.5298,693,870
3146,US,LA,Collinston,71229,32.6256,-91.8922,628,318
3147,US,KY,Owensboro,42303,37.7555,-87.0434,649,270
3148,US,AR,Arkadelphia,71923,34.0268,-93.0644,693,870
3152,US,DE,Milford,19963,38.9418,-75.3676,576,302
3155,US,IN,Scottsburg,47170,38.6911,-85.8545,529,812
3156,US,TX,Channelview,77530,29.7908,-95.1091,618,281
3157,US,TX,New Boston,75570,33.4593,-94.4301,612,903
3159,US,TN,Sevierville,37862,35.7502,-83.6296,557,865
3161,US,LA,West Monroe,71292,32.3938,-92.2329,628,318
3162,US,AR,Camden,71701,33.6114,-92.8452,693,870
3163,US,LA,Farmerville,71241,32.7735,-92.4057,628,318
3164,US,LA,Vivian,71082,32.8552,-93.9567,612,318
3165,US,NJ,Secaucus,7094,40.7801,-74.0633,501,201
3168,US,WV,Charles Town,25414,39.2581,-77.8705,511,304
3171,US,TX,Merkel,79536,32.4546,-100.0233,662,325
3172,US,LA,Coushatta,71019,32.0602,-93.2691,612,318
3174,US,KY,Calvert City,42029,37.0034,-88.3845,632,270
3177,US,AR,Star City,71667,33.9432,-91.8322,693,870
3180,US,MS,Gulfport,39503,30.473,-89.1494,746,228
3181,US,WI,Fall Creek,54742,44.7415,-91.3012,702,715
3182,US,TX,League City,77573,29.5075,-95.0895,618,281
3184,US,TX,Midland,79711,31.9974,-102.0779,633,432
3190,US,WI,Kewaunee,54216,44.4368,-87.588,658,920
3191,US,CA,Harbor City,90710,33.796,-118.2986,803,310
3192,US,VA,Elkton,22827,38.3929,-78.6181,569,540
3195,US,VA,Falls Church,22041,38.8472,-77.1425,511,703
3197,US,VA,Fort Belvoir,22060,38.711,-77.1621,511,703
3200,US,CA,Winterhaven,92283,32.8701,-114.7223,771,760
3203,US,PA,Washington Crossing,18977,40.2855,-74.8789,504,215
3206,US,VA,Centreville,20120,38.8557,-77.4697,511,703
3211,US,MA,Indian Orchard,1151,42.151,-72.5124,543,413
3213,US,VA,Woodford,22580,38.1184,-77.4413,556,804
3216,US,IN,Muncie,47304,40.2369,-85.4679,527,765
3217,US,IN,Veedersburg,47987,40.1202,-87.2339,582,765
3218,US,IN,Kokomo,46902,40.4398,-86.0893,527,765
3219,US,IN,Seymour,47274,38.9385,-85.8896,529,812
3220,US,WV,Martinsburg,25401,39.4632,-77.9521,511,304
3221,US,NM,Thoreau,87323,35.4211,-108.197,790,505
3222,US,IN,Crothersville,47229,38.8067,-85.8732,529,812
3223,US,IL,Urbana,61802,40.1202,-88.1551,648,217
3224,US,CA,Apple Valley,92307,34.5776,-117.1592,803,760
3226,US,IN,Carmel,46032,39.9738,-86.1765,527,317
3228,US,IN,Mitchell,47446,38.75,-86.5386,527,812
3229,US,IN,Westfield,46074,40.036,-86.1705,527,317
3230,US,NY,Hawthorne,10532,41.094,-73.7894,501,914
3231,US,IL,Champaign,61822,40.1319,-88.2952,648,217
3242,US,WI,Big Bend,53103,42.886,-88.2254,617,262
3245,US,IN,North Vernon,47265,39.0282,-85.6304,529,812
3247,US,TX,Trinity,75862,30.9692,-95.3486,709,936
3248,US,TX,Danbury,77534,29.2294,-95.3212,618,979
3249,US,WI,Caledonia,53108,42.8143,-87.9423,617,262
3250,US,PA,Girard,16417,41.9703,-80.3125,516,814
3252,US,VA,Glen Allen,23060,37.661,-77.5312,556,804
3253,US,CA,Torrance,90504,33.8669,-118.3312,803,310
3254,US,IN,Frankton,46044,40.2132,-85.7848,527,765
3259,US,IN,Greenwood,46143,39.5925,-86.1111,527,317
3264,US,FL,Homestead,33033,25.4903,-80.4187,528,305
3266,US,LA,Kinder,70648,30.5363,-92.9054,643,337
3267,US,NJ,Mountain Lakes,7046,40.8903,-74.4417,501,973
3268,US,CA,Monterey Park,91754,34.0514,-118.1456,803,626
3269,US,CA,Mill Valley,94941,37.8959,-122.5663,807,415
3271,US,CA,Suisun City,94585,38.1699,-121.9367,862,707
3272,US,OH,Lewis Center,43035,40.1832,-82.9954,535,614
3273,US,CA,March Air Reserve Base,92518,33.8914,-117.2788,803,951
3274,US,OH,Bellefontaine,43311,40.3612,-83.7597,542,937
3275,US,CA,La Mesa,91941,32.7596,-116.994,825,619
3276,US,WV,Huntington,25701,38.3685,-82.4245,564,304
3279,US,NH,Exeter,3833,42.9661,-70.9881,506,603
3280,US,NH,Hollis,3049,42.7529,-71.5837,506,603
3282,US,IN,Munster,46321,41.5505,-87.5026,602,219
3284,US,MA,Framingham,1701,42.3233,-71.4352,506,508
3285,US,CA,Campo,91906,32.6866,-116.4752,825,619
3286,US,MI,Grandville,49418,42.8828,-85.7828,563,616
3287,US,CA,Lodi,95240,38.1165,-121.1676,862,209
3288,US,MA,Tewksbury,1876,42.6106,-71.2342,506,978
3289,US,LA,Rayne,70578,30.2161,-92.2675,642,337
3290,US,MA,Brockton,2302,42.0858,-70.9999,506,508
3291,US,CA,Santa Fe Springs,90670,33.9275,-118.0657,803,562
3292,US,PA,Matamoras,18336,41.3687,-74.7002,501,570
3295,US,MA,Southborough,1772,42.2966,-71.5352,506,508
3299,US,MA,North Chelmsford,1863,42.632,-71.3888,506,978
3300,US,FL,Destin,32541,30.3981,-86.4563,686,850
3305,US,UT,Provo,84604,40.3393,-111.5709,770,801
3306,US,UT,Orem,84057,40.2969,-111.6946,770,801
3307,US,NJ,Paramus,7652,40.9445,-74.07,501,201
3309,US,NY,Flushing,11371,40.7723,-73.8722,501,718
3310,US,UT,Morgan,84050,41.0105,-111.6782,770,801
3311,US,MS,Shannon,38868,34.1105,-88.7576,673,662
3313,US,MD,Curtis Bay,21226,39.189,-76.5482,512,410
3314,US,MD,Bel Air,21014,39.5359,-76.3483,512,410
3318,US,MD,Denton,21629,38.8475,-75.7932,512,410
3319,US,MD,Tracys Landing,20779,38.7609,-76.5764,511,410
3320,US,MD,Forest Hill,21050,39.5846,-76.3918,512,410
3322,US,MD,Woodbine,21797,39.339,-77.064,512,410
3323,US,MD,Abingdon,21009,39.4738,-76.2894,512,410
3325,US,CA,Emeryville,94608,37.8342,-122.2897,807,510
3326,US,MD,Fort George G Meade,20755,39.1088,-76.7454,512,410
3327,US,MD,Sparks Glencoe,21152,39.5483,-76.6859,512,410
3328,US,MD,Towson,21286,39.4157,-76.5718,512,410
3330,US,MD,Rosedale,21237,39.3405,-76.4962,512,410
3331,US,MD,Nottingham,21236,39.3892,-76.492,512,410
3332,US,CA,Yountville,94599,38.4016,-122.3608,807,707
3333,US,MD,Middle River,21220,39.3343,-76.4394,512,410
3334,US,CA,Moreno Valley,92553,33.9224,-117.2476,803,951
3335,US,MD,East New Market,21631,38.5873,-75.9452,512,410
3339,US,MD,Hunt Valley,21031,39.4878,-76.6567,512,410
3340,US,MD,Dunkirk,20754,38.7363,-76.6468,511,301
3341,US,MD,Lutherville Timonium,21093,39.4363,-76.6389,512,410
3342,US,CT,South Windsor,6074,41.8338,-72.5706,533,860
3345,US,IL,Chester,62233,37.9523,-89.7883,609,618
3346,US,MD,Sparrows Point,21219,39.2303,-76.4496,512,410
3347,US,MD,Odenton,21113,39.051,-76.7285,512,410
3348,US,MD,Owings Mills,21117,39.437,-76.7818,512,410
3351,US,MD,Jessup,20794,39.1441,-76.7817,512,301
3352,US,MD,Lusby,20657,38.3857,-76.4398,511,410
3353,US,MD,Edgewater,21037,38.9571,-76.55,512,410
3354,US,MD,Aberdeen,21001,39.4984,-76.1966,512,410
3355,US,CA,Laguna Beach,92651,33.5558,-117.7858,803,949
3357,US,ID,Saint Anthony,83445,43.9864,-111.7959,758,208
3360,US,MD,Ocean City,21842,38.3384,-75.1249,576,410
3361,US,MD,Sykesville,21784,39.3941,-76.9695,512,410
3363,US,MD,Essex,21221,39.3093,-76.475,512,410
3364,US,MD,Taneytown,21787,39.6575,-77.1748,512,410
3365,US,MD,Dundalk,21222,39.2575,-76.4951,512,410
3367,US,AL,Brierfield,35035,33.0491,-86.9788,630,205
3368,US,FL,Jacksonville Beach,32250,30.2801,-81.405,561,904
3373,US,KY,Hickman,42050,36.5745,-89.1089,632,270
3378,US,NJ,Holmdel,7733,40.3754,-74.1712,501,732
3379,US,MA,Fitchburg,1420,42.5908,-71.8055,506,978
3380,US,KY,Grand Rivers,42045,37.0803,-88.2728,632,270
3382,US,MA,Dracut,1826,42.6931,-71.3087,506,978
3383,US,NJ,Clark,7066,40.6224,-74.3124,501,732
3384,US,MT,West Yellowstone,59758,44.6929,-111.2135,754,406
3389,US,TN,Chattanooga,37406,35.0671,-85.2456,575,423
3390,US,NE,Lynch,68746,42.8754,-98.4253,722,402
3391,US,SC,North Augusta,29841,33.5244,-81.9424,520,803
3393,US,SC,Lamar,29069,34.1939,-80.1024,570,843
3394,US,MA,Newton Highlands,2461,42.3169,-71.2082,506,617
3395,US,MS,Weir,39772,33.3186,-89.3052,673,662
3397,US,MA,Charlestown,2129,42.3801,-71.0642,506,617
3399,US,GA,Winterville,30683,33.9312,-83.2595,524,706
3400,US,WI,Whitewater,53190,42.8048,-88.7072,617,262
3401,US,MA,Methuen,1844,42.7324,-71.1862,506,978
3402,US,IL,Hoopeston,60942,40.468,-87.6731,648,217
3403,US,KY,Versailles,40383,37.9969,-84.7466,541,859
3404,VI,0,Kingshill,850,17.7342,-64.7347,,
3406,US,UT,Woods Cross,84087,40.8917,-111.9311,770,801
3408,US,CO,Florence,81226,38.3399,-105.0792,752,719
3410,US,UT,Park City,84060,40.6483,-111.499,770,435
3414,US,NY,Jordanville,13361,42.9029,-74.8802,526,315
3421,US,FL,Longwood,32750,28.7058,-81.3475,534,407
3423,US,NV,Elko,89801,40.9527,-115.7906,770,775
3424,US,MT,Lavina,59046,46.4416,-108.9997,756,406
3430,US,MA,Natick,1760,42.2873,-71.3524,506,508
3434,US,FL,Fernandina Beach,32034,30.6005,-81.5283,561,904
3436,US,FL,Maitland,32751,28.6294,-81.3619,534,407
3438,US,UT,Delta,84624,39.2902,-112.5656,770,435
3439,US,GA,Tyrone,30290,33.4647,-84.5846,524,770
3440,US,UT,Lehi,84043,40.3245,-111.9618,770,801
3441,US,UT,West Jordan,84084,40.6236,-111.9871,770,801
3444,US,IL,Lake Forest,60045,42.24,-87.8717,602,847
3446,US,IL,East Alton,62024,38.8736,-90.0732,609,618
3447,US,NY,Little Neck,11362,40.7591,-73.7358,501,718
3451,US,UT,Wallsburg,84082,40.3636,-111.4331,770,435
3452,US,MI,Plainwell,49080,42.4825,-85.5787,563,269
3453,US,MO,Arnold,63010,38.4231,-90.4006,609,636
3456,US,UT,American Fork,84003,40.393,-111.7838,770,801
3457,US,ID,Idaho Falls,83404,43.4285,-112.0041,758,208
3458,US,MT,Bozeman,59715,45.772,-110.9349,754,406
3459,US,MT,Gardiner,59030,45.1303,-110.4182,756,406
3461,US,IL,Libertyville,60048,42.2833,-87.9606,602,847
3463,US,KY,Clay City,40312,37.843,-83.9266,541,606
3465,US,MO,Cassville,65625,36.6839,-93.8218,619,417
3467,US,UT,Riverton,84065,40.4774,-112.0082,770,801
3470,US,IA,Clive,50325,41.6139,-93.7855,679,515
3472,US,LA,Boyce,71409,31.3065,-92.6542,644,318
3473,US,GA,Dahlonega,30533,34.5728,-84.0263,524,706
3474,US,MS,Robinsonville,38664,34.7814,-90.3302,640,662
3475,US,NV,Spring Creek,89815,40.5599,-115.6155,770,775
3476,US,UT,Bountiful,84010,40.8804,-111.8233,770,801
3477,US,NV,Carlin,89822,40.7335,-116.1063,770,775
3478,US,ID,Blackfoot,83221,43.2779,-112.5627,758,208
3480,US,CA,Twain Harte,95383,38.0815,-120.2479,862,209
3481,US,UT,Springville,84663,40.209,-111.474,770,801
3482,US,MA,Boxborough,1719,42.4917,-71.517,506,978
3483,US,VA,Atkins,24311,36.8836,-81.3919,531,276
3485,US,NV,Pahrump,89048,36.3638,-116.15,839,775
3490,US,AL,Muscle Shoals,35661,34.7686,-87.5583,691,256
3491,US,NY,Champlain,12919,44.9607,-73.436,523,518
3493,US,NV,Winnemucca,89445,41.1216,-118.0537,811,775
3496,US,UT,Hurricane,84737,37.1385,-112.979,770,435
3511,US,NY,East Elmhurst,11369,40.7638,-73.8709,501,718
3513,US,NV,Mesquite,89027,36.7889,-114.1431,839,702
3518,US,CA,Foothill Ranch,92610,33.7041,-117.6724,803,949
3519,US,TX,Cedar Park,78613,30.4998,-97.8082,635,512
3520,US,ID,Grangeville,83530,45.9035,-116.1387,881,208
3521,US,ID,Nezperce,83543,46.2826,-116.232,881,208
3522,US,ID,Athol,83801,47.9676,-116.6809,881,208
3523,US,ID,Sandpoint,83864,48.3432,-116.4536,881,208
3524,US,OR,Pendleton,97801,45.7354,-118.7977,810,541
3526,US,OR,Hermiston,97838,45.8504,-119.213,810,541
3527,US,WA,Kennewick,99336,46.2131,-119.1682,819,509
3528,US,GA,Lawrenceville,30045,33.935,-83.9538,524,770
3529,US,ID,Kooskia,83539,46.0857,-115.8628,881,208
3530,US,WA,Pullman,99163,46.7322,-117.2455,881,509
3535,US,WA,Kirkland,98033,47.6727,-122.1873,819,425
3537,US,PA,Pulaski,16143,41.1025,-80.4517,536,724
3538,US,AK,Nuiqsut,99789,69.8327,-152.1489,745,907
3543,US,WA,Enumclaw,98022,47.106,-121.6029,819,360
3546,US,PA,Canonsburg,15317,40.2713,-80.1702,508,724
3547,US,GA,Loganville,30052,33.8042,-83.8893,524,770
3550,US,WA,Sultan,98294,47.8559,-121.7397,819,360
3552,US,MD,Belcamp,21017,39.4752,-76.2368,512,410
3553,US,MD,Saint Michaels,21663,38.7993,-76.2334,512,410
3554,US,IL,Venice,62090,38.6703,-90.1704,609,618
3556,US,MD,Rising Sun,21911,39.6717,-76.0546,512,410
3557,US,ND,Fort Yates,58538,46.1035,-100.7029,687,701
3560,US,CA,Cerritos,90703,33.8661,-118.0528,803,562
3561,US,GA,Mableton,30126,33.8187,-84.5824,524,770
3562,US,MS,Ruleville,38771,33.7426,-90.555,647,662
3565,US,FL,Tallahassee,32309,30.5802,-84.1266,530,850
3567,US,FL,Newberry,32669,29.6313,-82.5814,592,352
3569,US,GA,Rincon,31326,32.2923,-81.2182,507,912
3572,US,FL,Midway,32343,30.4924,-84.4473,530,850
3573,US,GA,Valdosta,31601,30.7461,-83.3513,530,229
3578,US,PA,Wexford,15090,40.629,-80.0793,508,724
3580,US,FL,Ponte Vedra Beach,32082,30.1023,-81.3532,561,904
3581,US,GA,Mcdonough,30253,33.4514,-84.187,524,678
3583,US,GA,Saint Simons Island,31522,31.2163,-81.3666,561,912
3601,US,IL,Yates City,61572,40.7949,-90.043,682,309
3603,US,CA,Dana Point,92629,33.4782,-117.7064,803,949
3604,US,TN,Clarksville,37040,36.4642,-87.3797,659,931
3606,US,FL,Green Cove Springs,32043,29.943,-81.7433,561,904
3610,US,FL,Port Saint Joe,32456,29.8409,-85.269,656,850
3612,US,WI,Kenosha,53144,42.6227,-87.9377,617,262
3614,US,IL,North Aurora,60542,41.8044,-88.347,602,630
3615,US,GA,Reidsville,30453,32.0178,-82.0966,507,912
3617,US,GA,Winder,30680,33.9846,-83.6978,524,770
3618,US,GA,Douglas,31535,31.4648,-82.8608,525,912
3620,US,VA,Charlottesville,22911,38.098,-78.3966,584,434
3623,US,FL,Blountstown,32424,30.4134,-85.0678,656,850
3624,US,SC,Lugoff,29078,34.1873,-80.7064,546,803
3625,US,FL,Caryville,32427,30.7207,-85.8029,656,850
3630,US,GA,Tifton,31794,31.4505,-83.5085,525,229
3631,US,NJ,Englewood Cliffs,7632,40.8915,-73.9471,501,201
3632,US,TN,Dunlap,37327,35.425,-85.383,575,423
3634,US,OR,Tualatin,97062,45.3653,-122.7579,820,503
3636,US,SC,Gaffney,29341,35.0994,-81.7048,567,864
3640,US,WA,Battle Ground,98604,45.8081,-122.4816,820,360
3641,US,OR,Sandy,97055,45.3843,-122.175,820,503
3642,US,OK,Guymon,73942,36.7477,-101.5156,634,580
3643,US,OR,Coos Bay,97420,43.374,-124.1477,801,541
3644,US,OR,Reedsport,97467,43.7917,-123.9078,801,541
3647,US,NY,East Meadow,11554,40.7225,-73.5568,501,516
3652,US,IL,Lake Bluff,60044,42.2853,-87.87,602,847
3656,US,OR,Glide,97443,43.2454,-123,801,541
3657,US,OR,Sherwood,97140,45.3552,-122.8615,820,503
3658,US,NJ,New Providence,7974,40.6973,-74.4052,501,908
3661,US,PA,Meshoppen,18630,41.6719,-76.0227,577,570
3662,US,OR,Fairview,97024,45.5446,-122.4459,820,503
3664,US,PA,Edgemont,19028,39.9748,-75.4505,504,610
3665,US,PA,Kennett Square,19348,39.8671,-75.7119,504,610
3667,US,PA,Boyertown,19512,40.3468,-75.6809,504,610
3668,US,OH,Cincinnati,45223,39.1666,-84.5465,515,513
3669,US,NJ,Hackettstown,7840,40.8669,-74.822,501,908
3675,US,PA,Glen Mills,19342,39.9056,-75.4874,504,610
3676,US,CA,Dinuba,93618,36.5237,-119.3953,866,559
3677,US,NY,Central Valley,10917,41.3237,-74.1231,501,845
3679,US,PA,Concordville,19331,39.8851,-75.5202,504,610
3682,US,OH,Mount Hope,44660,40.624,-81.7846,510,330
3683,US,IL,Rockford,61103,42.3423,-89.0816,610,815
3684,US,ID,Coeur D Alene,83814,47.5924,-116.9119,881,208
3686,US,NJ,Roseland,7068,40.8222,-74.3045,501,973
3688,US,PA,Stockertown,18083,40.754,-75.2621,504,610
3690,US,VA,Earlysville,22936,38.157,-78.4948,584,434
3693,US,LA,Arcadia,71001,32.5684,-92.8844,612,318
3695,US,IN,Greenfield,46140,39.815,-85.7835,527,317
3697,US,PA,Doylestown,18901,40.3321,-75.1179,504,215
3700,US,PA,Marcus Hook,19061,39.8431,-75.4662,504,610
3702,US,PA,Catasauqua,18032,40.6563,-75.4661,504,610
3704,US,KY,Fort Knox,40121,37.9263,-85.9481,529,502
3706,US,PA,Honey Brook,19344,40.0799,-75.8693,504,610
3707,US,PA,West Grove,19390,39.8486,-75.822,504,610
3708,US,NJ,Branchville,7890,41.1465,-74.7524,501,973
3709,US,CA,Santa Rosa,95403,38.5021,-122.7619,807,707
3712,US,CA,Ukiah,95482,39.1266,-123.2805,807,707
3713,US,MI,Hillsdale,49242,41.8619,-84.6038,551,517
3716,US,IN,Goshen,46526,41.5823,-85.8344,588,574
3720,US,OH,Napoleon,43545,41.4007,-84.1331,547,419
3721,US,OH,Millbury,43447,41.5701,-83.4303,547,419
3723,US,OH,Stryker,43557,41.4879,-84.3919,547,419
3733,US,MI,Ypsilanti,48197,42.2196,-83.6046,505,734
3735,US,MI,Jonesville,49250,42.0154,-84.6086,551,517
3736,US,MD,White Marsh,21162,39.3902,-76.4065,512,410
3740,US,MI,Adrian,49221,41.8934,-84.0659,547,517
3741,US,OH,Sandusky,44870,41.4016,-82.731,510,419
3746,US,OH,Pioneer,43554,41.6449,-84.5342,547,419
3747,US,OH,Walbridge,43465,41.5689,-83.5018,547,419
3748,US,OH,Defiance,43512,41.3606,-84.3701,547,419
3749,US,OH,Northwood,43619,41.5961,-83.4443,547,419
3752,US,OH,Perrysburg,43551,41.5295,-83.5656,547,419
3754,US,MI,Walled Lake,48390,42.553,-83.4802,505,248
3756,US,MI,Litchfield,49252,42.0464,-84.7725,551,517
3759,US,PA,Sewickley,15143,40.5775,-80.1503,508,412
3761,US,MI,Blissfield,49228,41.813,-83.8815,547,517
3762,US,MT,Missoula,59808,46.9846,-114.1213,762,406
3763,US,OH,Sylvania,43560,41.693,-83.7273,547,419
3767,US,RI,Central Falls,2863,41.89,-71.3941,521,401
3775,US,WA,Spokane,99202,47.6567,-117.3785,881,509
3777,US,CT,Trumbull,6611,41.2429,-73.2007,501,203
3780,US,MA,North Dartmouth,2747,41.6623,-71.0107,521,508
3781,US,NJ,Avenel,7001,40.586,-74.2713,501,732
3784,US,CT,Guilford,6437,41.3387,-72.6907,533,203
3786,US,NJ,East Rutherford,7073,40.8132,-74.0738,501,201
3789,US,CT,West Haven,6516,41.273,-72.9574,533,203
3791,US,CT,Redding,6896,41.3022,-73.3883,501,203
3794,US,NY,Lake Grove,11755,40.859,-73.12,501,631
3795,US,NY,Ronkonkoma,11779,40.8156,-73.1181,501,631
3796,US,NY,Commack,11725,40.8393,-73.2797,501,631
3797,US,IN,Zionsville,46077,39.9831,-86.2876,527,317
3798,US,NY,Holbrook,11741,40.7981,-73.068,501,631
3799,US,NY,Rocky Point,11778,40.9363,-72.933,501,631
3800,US,NY,Bohemia,11716,40.7699,-73.1263,501,631
3801,US,NY,Holtsville,11742,40.8107,-73.0459,501,631
3802,US,NY,Yaphank,11980,40.8328,-72.911,501,631
3803,US,NY,Hampton Bays,11946,40.8817,-72.5364,501,631
3804,US,CA,Berkeley,94702,37.8646,-122.2877,807,510
3807,US,NY,Patchogue,11772,40.7699,-72.9994,501,631
3808,US,NY,Shoreham,11786,40.9441,-72.8883,501,631
3809,US,CA,Vallejo,94591,38.1165,-122.2091,807,707
3810,US,NY,Bridgehampton,11932,40.9379,-72.3009,501,631
3812,US,CT,Southbury,6488,41.4675,-73.2406,533,203
3814,US,CT,Rocky Hill,6067,41.6577,-72.6627,533,860
3819,US,CT,East Haven,6512,41.2833,-72.8653,533,203
3822,US,IL,Effingham,62401,39.1191,-88.5702,648,217
3824,US,CT,Sandy Hook,6482,41.4047,-73.2504,501,203
3826,US,NY,Armonk,10504,41.1309,-73.6942,501,914
3828,US,CT,Plainville,6062,41.6738,-72.8544,533,860
3832,US,CA,Fontana,92335,34.0881,-117.4648,803,909
3833,US,CT,Cromwell,6416,41.5951,-72.6454,533,860
3834,US,MA,Great Barrington,1230,42.1617,-73.3277,532,413
3836,US,CT,Bloomfield,6002,41.8527,-72.7362,533,860
3837,US,MA,East Longmeadow,1028,42.062,-72.4989,543,413
3839,US,MA,Chicopee,1020,42.1861,-72.5255,543,413
3840,US,CT,West Hartford,6119,41.7635,-72.7266,533,860
3841,US,CT,Wethersfield,6109,41.7037,-72.6628,533,860
3843,US,CT,Groton,6340,41.3532,-72.0386,533,860
3845,US,OH,Saint Clairsville,43950,40.0968,-80.9174,554,740
3846,US,CT,East Granby,6026,41.9394,-72.7351,533,860
3847,US,IL,Winnetka,60093,42.1137,-87.7609,602,847
3850,US,CT,Windsor Locks,6096,41.9235,-72.6557,533,860
3854,US,IL,La Grange Park,60526,41.8323,-87.8788,602,708
3855,US,IL,Gilberts,60136,42.1061,-88.3796,602,847
3857,US,VA,Mineral,23117,37.9352,-77.8808,556,540
3861,US,IL,Broadview,60155,41.8569,-87.8552,602,708
3862,US,SD,Colman,57017,44.0186,-96.8287,725,605
3863,US,AK,Elmendorf Afb,99506,61.2755,-149.7924,743,907
3866,US,FL,Jay,32565,30.8657,-86.9838,686,850
3867,US,AK,Wasilla,99654,61.5235,-149.5748,743,907
3868,US,AK,Palmer,99645,61.6092,-148.4657,743,907
3874,US,AK,Eagle River,99577,61.2149,-149.2583,743,907
3889,US,WA,Yakima,98907,46.6021,-120.5059,810,509
3896,US,WA,Walla Walla,99362,46.1107,-118.3077,810,509
3897,US,IL,Bridgeview,60455,41.7398,-87.8095,602,708
3898,US,IL,Deerfield,60015,42.1711,-87.8445,602,847
3899,US,GA,Marietta,30062,34.0017,-84.471,524,770
3900,US,GA,Newnan,30263,33.3807,-84.7997,524,770
3902,US,CA,City Of Industry,,34.013,-117.9672,803,626
3904,US,MI,Twin Lake,49457,43.3672,-86.1594,563,231
3905,US,GA,Lithia Springs,30122,33.7614,-84.6371,524,770
3906,US,PA,Claysville,15323,40.1087,-80.4115,508,724
3910,US,IA,Spirit Lake,51360,43.4216,-95.0932,624,712
3912,US,TX,Pearland,77584,29.5447,-95.337,618,281
3913,US,NE,Grand Island,68802,40.925,-98.342,722,308
3917,US,SD,Wall,57790,44.133,-102.2186,764,605
3918,US,NE,South Sioux City,68776,42.4555,-96.4535,624,402
3920,US,NC,Cherryville,28021,35.3945,-81.3888,517,704
3921,US,SD,Yankton,57078,42.9359,-97.4405,725,605
3922,US,NE,Clay Center,68933,40.5247,-98.0144,722,402
3923,US,MA,Newton Center,2459,42.3137,-71.1947,506,617
3929,US,OH,Barnesville,43713,39.9876,-81.161,554,740
3933,US,CA,La Quinta,92253,33.6579,-116.27,804,760
3937,US,GA,Tunnel Hill,30755,34.8732,-85.0387,575,706
3938,US,CA,Scotts Valley,95066,37.0614,-122.0118,828,831
3939,US,SC,Taylors,29687,34.9965,-82.3287,567,864
3941,US,IN,Yorktown,47396,40.2176,-85.519,527,765
3942,US,NY,Long Island City,11101,40.74,-73.9361,501,718
3953,US,FL,Freeport,32439,30.4711,-86.1552,656,850
3955,US,GA,Austell,30168,33.7814,-84.5874,524,770
3960,US,CA,San Ysidro,92173,32.5553,-117.0438,825,619
3961,US,CA,Seal Beach,90740,33.7576,-118.0777,803,562
3963,US,AZ,Surprise,85374,33.6475,-112.3884,753,623
3964,US,CA,Barstow,92311,34.9701,-116.9929,803,760
3965,US,CA,Hemet,92545,33.7361,-117.0583,803,951
3967,US,CA,Rialto,92376,34.102,-117.3868,803,909
3968,US,CA,Upland,91786,34.104,-117.6642,803,909
3970,US,CA,Ontario,91764,34.0778,-117.6261,803,909
3982,US,MS,Scott,38772,33.5918,-91.0743,647,662
3984,US,CA,Los Banos,93635,36.9036,-121.0215,866,209
3986,US,AZ,Saint David,85630,31.8894,-110.1845,789,520
3987,US,AL,Daphne,36526,30.6061,-87.858,686,251
3992,US,FL,Delray Beach,33445,26.4541,-80.1041,548,561
3993,US,GA,Douglasville,30133,33.7515,-84.7477,524,770
3994,US,GA,Riverdale,30296,33.5561,-84.4522,524,770
3995,US,OH,Steubenville,43952,40.3968,-80.6749,554,740
4001,US,CA,Marina Del Rey,90292,33.9777,-118.4351,803,310
4006,US,CA,Rancho Santa Margarita,92688,33.6199,-117.6119,803,949
4011,US,FL,Pompano Beach,33071,26.2436,-80.2656,528,954
4012,US,NJ,Belmar,7719,40.1658,-74.0743,501,732
4013,US,NJ,Eatontown,7724,40.3039,-74.0703,501,732
4014,US,CA,El Dorado Hills,95762,38.6839,-121.0526,862,916
4015,US,NY,Weedsport,13166,43.0351,-76.5552,555,315
4018,US,TX,Burnet,78611,30.797,-98.2445,635,512
4019,PR,0,Guaynabo,965,18.4286,-66.1152,,
4022,US,SC,Huger,29450,33.0608,-79.7927,519,843
4025,US,KY,Hazard,41701,37.3092,-83.0568,541,606
4028,US,KS,Buhler,67522,38.1192,-97.7469,678,620
